atco_area_code,atco_area_id,atco_outarea,stop_no,naptan_stop_no,maximo_stop_no,sms_stop_no,rt_stop_no,cluster_no,road_name,street_name,stop_name,stop_identifier,jp_stop_name,rt_stop_name,start_date,end_date,stop_aka,mode,stop_type,naptan_stop_type,naptan_stop_sub_type,both_dir,schools_only,alighting_only,status,naptan_record_status,landmark,side_road,suburb,town,county,ward,district,northing,easting,latitude,longitude,local_area,direction,national_gazetteer_id,national_gazetteer_locality,locality_centre_indicator,naptan_bus_registration_status,seating_type,site_illuminated,shelter_type,Shelter,shelt_end_date,additional_flag_text,tt_boards_req,no_panels_total,no_panels_tt,service_plate,service_plate_text,platform,stand,flag_mount,tt_board_type,created_on,parliamentary_constituency,Boardings Per Month,Boardings Per Hour,Stop Calls Per Month,Stop Calls Per Hour,Board Type,Interchange,Boarding Band,Stop Calls Per Month Band,Stop Calls Per Hour Band,Damaged,Views,Users,Views per User,Realtime_Helper,Realtime?,Shelter?,Virtual?,Poster?
370,99 ,0,0050486 ,370050486,50486,,37050486,08578,Worsbrough Road,Worsbrough Road,Worsbrough Road/Coronation Drive,opp,Coronation Drive,Coronation Drive,1993-06-07 00:00:00.000,2099-01-01 00:00:00.000,Worsbrough Road/Coronation Drive,B,P,BCT,MKD,N,N,N,L,ACT,O/S Cemetery,Coronation Drive,Birdwell,Barnsley,South Yorkshire,Rockingham Ward,Barnsley District,402272,434822,53.515979301,-1.476324263,Birdwell,NE,E0030009,Birdwell,N,   ,BSL,Y,BSL2,y,2099-01-01 00:00:00.000,,C,2,1 ,N,,NULL,NULL,STSB,TF2R,1993-06-07 00:00:00.000,Barnsley East,0,0,944.6666667,2.595238095,Trueform 2 Panel Rotating,No,0,900-999,0.1-3,0,27,9,3,No,0,1,0,None
370,99 ,0,0055144 ,370055144,55144,,37055144,09450,Wood Walk,Wood Walk,Wood Walk/Wombwell Station,adj,Wombwell Station,Wombwell Station,1993-06-07 00:00:00.000,2099-01-01 00:00:00.000,Wood Walk/Wombwell Station,B,P,BCT,MKD,N,N,N,L,ACT,Wombwell Station,Dovecliffe Road,Wombwell,Barnsley,South Yorkshire,Wombwell Ward,Barnsley District,402415,438821,53.516985358,-1.416001539,Wombwell,NE,E0030701,Wombwell,N,NULL,BSL,Y,BSL2,y,2099-01-01 00:00:00.000,,C,2,1 ,N,,NULL,NULL,NONE,TF2R,1993-06-07 00:00:00.000,Barnsley East,0,0,476.6666667,1.30952381,Trueform 2 Panel Rotating,No,0,400-499,0.1-3,0,9,3,3,No,0,1,0,None
370,99 ,0,0051172 ,370051172,51172,,37051172,09114,Wombwell Lane,Wombwell Lane,Wombwell Lane/Caulk Lane,opp,Caulk Lane,Caulk Lane,1993-06-07 00:00:00.000,2099-01-01 00:00:00.000,Wombwell Lane/Caulk Lane,B,P,BCT,MKD,N,N,N,L,ACT,Opp Jewson/Greggs,Caulk Lane,Stairfoot,Barnsley,South Yorkshire,Stairfoot Ward,Barnsley District,404941,437839,53.539760224,-1.430506144,Stairfoot,SE,E0030559,Stairfoot,N,   ,BSL,Y,BSL2,y,2099-01-01 00:00:00.000,,C,2,2 ,N,,,  ,NONE,HOR2,1993-06-07 00:00:00.000,Barnsley East,0,0,2422.333333,6.654761905,Horizon 2 Panel Carousel,No,0,2000-2999,3-10,0,0,0,No Data,370051172,1,1,0,None
370,99 ,0,0050022 ,370050022,50022,,37050022,09105,Wombwell Lane,Wombwell Lane,Wombwell Lane/Bleachcroft Way,opp,Bleachcroft Way,Opp The Keel Inn,1993-06-07 00:00:00.000,2099-01-01 00:00:00.000,Wombwell Lane/Bleachcroft Way,B,P,BCT,MKD,N,N,N,L,ACT,Outside Mcdonalds,Bleachcroft Way,Stairfoot,Barnsley,South Yorkshire,Stairfoot Ward,Barnsley District,405455,437394,53.544411779,-1.437159281,Stairfoot,SE,E0030559,Stairfoot,Y,NULL,BSL,Y,BSL2,y,2099-01-01 00:00:00.000,,C,2,2 ,N,,NULL,NULL,NONE,HOR2,1993-06-07 00:00:00.000,Barnsley East,0,0,2422.333333,6.654761905,Horizon 2 Panel Carousel,No,0,2000-2999,3-10,0,0,0,No Data,No,0,1,0,None
370,99 ,0,0050064 ,370050064,50064,,37050064,08344,Wilthorpe Road,Wilthorpe Road,Wilthorpe Road/Wilbrook Rise,adj,Wilbrook Rise,Wilbrook Rise,1993-06-07 00:00:00.000,2099-01-01 00:00:00.000,Wilthorpe Road/Wilbrook Rise,B,P,BCT,MKD,N,N,N,L,ACT,Outside 32,Wilbrook Rise,Wilthorpe,Barnsley,South Yorkshire,Darton West Ward,Barnsley District,407751,432361,53.565381367,-1.512872016,Wilthorpe,W ,E0030692,Wilthorpe,N,   ,BSL,Y,BSL2,y,2099-01-01 00:00:00.000,,C,2,1 ,N,,  ,  ,NONE,HOR2,1993-06-07 00:00:00.000,Barnsley Central,0,0,1330.333333,3.654761905,Horizon 2 Panel Carousel,No,0,1000-1999,3-10,1,0,0,No Data,No,0,1,0,None
370,99 ,0,0055350 ,370055350,55350,,37055350,01397,Westwood New Road,Westwood New Road,Westwood New Road/Wentworth Way,adj,Wentworth Way,Wentworth Ind Est,1993-06-06 00:00:00.000,2099-01-01 00:00:00.000,Westwood New Road/Wentworth Way,B,P,BCT,MKD,N,N,N,L,ACT,Industrial Estate,Wentworth Way,Tankersley,Barnsley,South Yorkshire,Penistone East Ward,Barnsley District,399523,434148,53.491315247,-1.486786665,Tankersley,NE,E0052715,Tankersley,N,   ,BSL,Y,BSL2,y,2099-01-01 00:00:00.000,,C,2,1 ,N,,,  ,STSB,INF2,1993-06-06 00:00:00.000,Penistone and Stocksbridge,0,0,732.3333333,2.011904762,Manplas standard 2 panel caro,No,0,700-799,0.1-3,0,3,3,1,No,0,1,0,None
370,99 ,0,0055005 ,370055005,55005,,37055005,09615,West Street,West Street,West Street/Sports Centre,at,Sports Centre,Sports Centre,1993-06-07 00:00:00.000,2099-01-01 00:00:00.000,West Street/Sports Centre,B,P,BCT,MKD,N,N,N,L,ACT,Sports Centre,Vernon Street,Hoyland,Barnsley,South Yorkshire,Rockingham Ward,Barnsley District,400526,436544,53.500169786,-1.450559215,Hoyland,E,N0060526,Hoyland,N,   ,BSL,Y,BSL2,y,2012-09-04 23:00:00.000,,R,2,1 ,N,,,  ,NONE,HOR2,1993-06-07 00:00:00.000,Barnsley East,0,0,2387.666667,6.55952381,Horizon 2 Panel Carousel,No,0,2000-2999,3-10,1,6,3,2,No,0,1,0,Products
370,99 ,0,0051108 ,370051108,51108,,37051108,01396,Wentworth Way,Wentworth Way,Wentworth Way/Maple Road,adj,Maple Road,Maple Road,1993-06-07 00:00:00.000,2099-01-01 00:00:00.000,Wentworth Way/Maple Road,B,P,BCT,MKD,N,N,N,L,ACT,Industrial Park,Maple Road,Tankersley,Barnsley,South Yorkshire,Penistone East Ward,Barnsley District,399553,433938,53.491598429,-1.489948434,Tankersley,NW,E0052715,Tankersley,N,   ,BSL,Y,BSL2,y,2099-01-01 00:00:00.000,,C,2,1 ,N,,,  ,NONE,TF2R,1993-06-07 00:00:00.000,Penistone and Stocksbridge,0,0,1924,5.285714286,Trueform 2 Panel Rotating,No,0,1000-1999,3-10,0,27,10,2.7,No,0,1,0,None
370,99 ,0,0050289 ,370050289,50289,,37050289,09533,Wentworth Road,Wentworth Road,Wentworth Road/Wath Road,opp,Wath Road,The Market,1993-06-07 00:00:00.000,2099-01-01 00:00:00.000,Wentworth Road/Wath Road,B,P,BCT,MKD,N,N,N,L,ACT,Opp The Market,Wath Road,Elsecar,Barnsley,South Yorkshire,Hoyland Milton Ward,Barnsley District,399874,438456,53.494173753,-1.421816608,Elsecar,NE,E0030155,Elsecar,Y,   ,BSL,Y,BSL2,y,2099-01-01 00:00:00.000,,C,2,1 ,N,,,  ,STSB,HOR2,1993-06-07 00:00:00.000,Barnsley East,0,0,459.3333333,1.261904762,Horizon 2 Panel Carousel,No,0,400-499,0.1-3,0,3,2,1.5,No,0,1,0,None
370,99 ,0,0055381 ,370055381,55381,,37055381,09482,Wentworth Road,Wentworth Road,Wentworth Road/Turners Close,opp,Turners Close,Turners Close,1993-06-07 00:00:00.000,2099-01-01 00:00:00.000,Wentworth Road/Turners Close,B,P,BCT,MKD,N,N,N,L,ACT,Opp Turners Close,Turners Close,Jump,Barnsley,South Yorkshire,Hoyland Milton Ward,Barnsley District,401048,438114,53.504750425,-1.426829100,Jump,SE,E0030302,Jump,N,   ,BSL,Y,BSL2,y,2099-01-01 00:00:00.000,,R,2,1 ,N,,NULL,NULL,STSB,HOR2,1993-06-07 00:00:00.000,Barnsley East,0,0,1503.666667,4.130952381,Horizon 2 Panel Carousel,No,0,1000-1999,3-10,1,7,3,2.333333333,No,0,1,0,None
370,99 ,0,0056165 ,370056165,56165,,37056165,10953,Wath Road,Wath Road,Wath Road/Valley Way,56165,Valley Way,Wath Rd/Valley Way,2021-10-07 00:00:00.000,2099-01-01 00:00:00.000,Wath Road/Valley Way,B,P,BCT,MKD,N,N,N,L,ACT,,Valley Way,Wombwell,Barnsley,South Yorkshire,Wombwell Ward,Barnsley District,402445,441004,53.517089733,-1.383077355,Wombwell,E,E0030701,Wombwell,N,PPT,BSL,Y,BSL2,y,2099-01-01 00:00:00.000,,R,2,0 ,N,,,  ,NONE,NONE,2021-10-07 00:00:00.000,Barnsley East,0,0,307.6666667,0.845238095,None,No,0,300-399,0.1-3,0,4,4,1,No,0,1,0,None
370,99 ,0,0056166 ,370056166,56166,,37056166,10953,Wath Road,Wath Road,Wath Road/Brampton Road,56166,Brampton Road,Wath Rd/Brampton Rd,2021-10-07 00:00:00.000,2099-01-01 00:00:00.000,Wath Road/Brampton Road,B,P,BCT,MKD,N,N,N,L,ACT,,Brampton Road,Wombwell,Barnsley,South Yorkshire,Wombwell Ward,Barnsley District,402427,441031,53.516925851,-1.382672537,Wombwell,NW,E0030701,Wombwell,N,PPT,BSL,Y,BSL2,y,2099-01-01 00:00:00.000,,C,2,0 ,N,,,  ,NONE,HOR2,2021-10-07 00:00:00.000,Barnsley East,0,0,316.3333333,0.869047619,Horizon 2 Panel Carousel,No,0,300-399,0.1-3,0,9,4,2.25,No,0,1,0,None
370,99 ,0,0055190 ,370055190,55190,,37055190,08418,Wakefield Road,Wakefield Road,Wakefield Road/Smithies Lane,opp,Smithies Lane,Smithies Lane,1993-06-07 00:00:00.000,2099-01-01 00:00:00.000,Wakefield Road/Smithies Lane,B,P,BCT,MKD,N,N,N,L,ACT,O/S Cookes Pet Supplies,Smithies Lane,Smithies,Barnsley,South Yorkshire,Old Town Ward,Barnsley District,408120,435037,53.568526656,-1.472429230,Smithies,S,E0030535,Smithies,N,   ,BSL,Y,BSL2,y,2099-01-01 00:00:00.000,,R,2,2 ,N,,NULL,NULL,NONE,TF2R,1993-06-07 00:00:00.000,Barnsley Central,0,0,3367,9.25,Trueform 2 Panel Rotating,No,0,3000-3999,3-10,1,0,0,No Data,370055190,1,1,0,None
370,99 ,0,0050842 ,370050842,50842,,37050842,08418,Wakefield Road,Wakefield Road,Wakefield Road/Smithies Lane,adj,Smithies Lane,Smithies Lane,1993-06-07 00:00:00.000,2099-01-01 00:00:00.000,Wakefield Road/Smithies Lane,B,P,BCT,MKD,N,N,N,L,ACT,Opp Cookes Pet Supplies,Smithies Lane,Smithies,Barnsley,South Yorkshire,Old Town Ward,Barnsley District,408116,435025,53.568491502,-1.472610863,Smithies,N,E0030535,Smithies,N,   ,BSL,Y,BSL2,y,2099-01-01 00:00:00.000,,R,2,2 ,N,,NULL,NULL,TCAP,TF2R,1993-06-07 00:00:00.000,Barnsley Central,0,0,3280.333333,9.011904762,Trueform 2 Panel Rotating,No,0,3000-3999,3-10,1,20,4,5,No,0,1,0,None
370,99 ,0,0050394 ,370050394,50394,,37050394,08426,Wakefield Road,Wakefield Road,Wakefield Road/Regent Crescent,adj,Regent Crescent,Regent Crescent,1993-06-07 00:00:00.000,2099-01-01 00:00:00.000,Wakefield Road/Regent Crescent,B,P,BCT,MKD,N,N,N,L,ACT,Adj Regent Cres,Regent Crescent,New Lodge,Barnsley,South Yorkshire,St Helens Ward,Barnsley District,409089,434697,53.577258469,-1.477455525,New Lodge,SE,E0030422,New Lodge,N,NULL,BSL,Y,BSL2,y,2099-01-01 00:00:00.000,,R,2,2 ,N,,NULL,NULL,STSB,HOR2,1993-06-07 00:00:00.000,Barnsley Central,0,0,2309.666667,6.345238095,Horizon 2 Panel Carousel,No,0,2000-2999,3-10,1,0,0,No Data,No,0,1,0,None
370,99 ,0,0050390 ,370050390,50390,,37050390,10536,Wakefield Road,Wakefield Road,Wakefield Road/Newstead Road,adj,Newstead Road,Newstead Road,1993-06-07 00:00:00.000,2099-01-01 00:00:00.000,Wakefield Road/Newstead Road,B,P,BCT,MKD,N,N,N,L,ACT,Opposite New Lodge Crescent,Newstead Road,New Lodge,Barnsley,South Yorkshire,St Helens Ward,Barnsley District,409529,434288,53.581239959,-1.483584062,New Lodge,SE,E0030422,New Lodge,N,NULL,BSL,Y,BSL2,y,2099-01-01 00:00:00.000,,R,2,1 ,N,,NULL,NULL,STSB,HOR2,1993-06-07 00:00:00.000,Barnsley Central,0,0,1131,3.107142857,Horizon 2 Panel Carousel,No,0,1000-1999,3-10,1,6,4,1.5,370050390,1,1,0,None
370,99 ,0,0050393 ,370050393,50393,,37050393,10537,Wakefield Road,Wakefield Road,Wakefield Road/Laithes Lane,adj,Laithes Lane,Laithes Lane,1993-06-07 00:00:00.000,2099-01-01 00:00:00.000,Wakefield Road/Laithes Lane,B,P,BCT,MKD,N,N,N,L,ACT,Outside Co-op,Laithes Lane,New Lodge,Barnsley,South Yorkshire,St Helens Ward,Barnsley District,409261,434553,53.578813864,-1.479611233,New Lodge,N ,E0030422,New Lodge,N,NULL,BSL,Y,BSL2,y,2099-01-01 00:00:00.000,,C,2,2 ,N,,NULL,NULL,NONE,TF2R,1993-06-07 00:00:00.000,Barnsley Central,0,0,2309.666667,6.345238095,Trueform 2 Panel Rotating,No,0,2000-2999,3-10,0,37,18,2.055555556,370050393,1,1,0,None
370,99 ,0,0050821 ,370050821,50821,,37050821,08412,Wakefield Road,Wakefield Road,Wakefield Road/Burton Road,adj,Burton Road,Burton Road,1993-06-07 00:00:00.000,2099-01-01 00:00:00.000,Wakefield Road/Burton Road,B,P,BCT,MKD,N,N,N,L,ACT,Outside 27,Burton Road,Smithies,Barnsley,South Yorkshire,Old Town Ward,Barnsley District,407544,435155,53.563341746,-1.470712174,Smithies,SE,E0030535,Smithies,N,   ,BSL,Y,BSL2,y,2099-01-01 00:00:00.000,,C,2,2 ,N,,NULL,NULL,TCAP,TF2R,1993-06-07 00:00:00.000,Barnsley Central,0,0,2309.666667,6.345238095,Trueform 2 Panel Rotating,No,0,2000-2999,3-10,0,0,0,No Data,No,0,1,0,None
370,99 ,0,0050820 ,370050820,50820,,37050820,08412,Wakefield Road,Wakefield Road,Wakefield Road/Burton Road,opp,Burton Road,Burton Road,1993-06-07 00:00:00.000,2099-01-01 00:00:00.000,Wakefield Road/Burton Road,B,P,BCT,MKD,N,N,N,L,ACT,Opposite No. 41,Burton Road,Smithies,Barnsley,South Yorkshire,Old Town Ward,Barnsley District,407568,435128,53.563559258,-1.471117103,Smithies,NW,E0030535,Smithies,N,   ,BSL,Y,BSL2,y,2099-01-01 00:00:00.000,,C,2,2 ,N,,NULL,NULL,TCAP,TF2R,1993-06-07 00:00:00.000,Barnsley Central,0,0,2244.666667,6.166666667,Trueform 2 Panel Rotating,No,0,2000-2999,3-10,0,171,36,4.75,No,0,1,0,Products
370,99 ,0,0050389 ,370050389,50389,,37050389,08448,Wakefield Road,Wakefield Road,Wakefield Road/Bar Lane,nr,Bar Lane,Bar Lane,1993-06-07 00:00:00.000,2099-01-01 00:00:00.000,Wakefield Road/Bar Lane,B,P,BCT,MKD,N,N,N,L,ACT,Opposite No. 407,Bar Lane,New Lodge,Barnsley,South Yorkshire,St Helens Ward,Barnsley District,409587,434158,53.581769712,-1.485541177,New Lodge,NW,E0030422,New Lodge,N,NULL,BSL,Y,BSL2,y,2099-01-01 00:00:00.000,,C,2,1 ,N,,NULL,NULL,STSB,HOR2,1993-06-07 00:00:00.000,Barnsley Central,0,0,1131,3.107142857,Horizon 2 Panel Carousel,No,0,1000-1999,3-10,0,3,2,1.5,No,0,1,0,None
370,99 ,0,0055383 ,370055383,55383,,37055383,09170,Upperwood Road,Upperwood Road,Upperwood Road/Verona Rise,adj,Verona Rise,Verona Rise,1993-06-07 00:00:00.000,2099-01-01 00:00:00.000,Upperwood Road/Verona Rise,B,P,BCT,MKD,N,N,N,L,ACT,Outside 4,Verona Rise,Darfield,Barnsley,South Yorkshire,Darfield Ward,Barnsley District,404131,441022,53.532241841,-1.382585683,Darfield,SE,E0030115,Darfield,N,   ,BSL,N,BSL2,y,2099-01-01 00:00:00.000,,C,2,1 ,N,,,  ,STSB,HOR2,1993-06-07 00:00:00.000,Barnsley East,0,0,1183,3.25,Horizon 2 Panel Carousel,No,0,1000-1999,3-10,0,0,0,No Data,No,0,1,0,None
370,99 ,0,0055304 ,370055304,55304,,37055304,09191,Upperwood Road,Upperwood Road,Upperwood Road/Marina Rise,adj,Marina Rise,Marina Rise,1993-06-07 00:00:00.000,2099-01-01 00:00:00.000,Upperwood Road/Marina Rise,B,P,BCT,MKD,N,N,N,L,ACT,Opposite 1,Marina Rise,Darfield,Barnsley,South Yorkshire,Darfield Ward,Barnsley District,404488,440458,53.535494111,-1.391048009,Darfield,W,E0030115,Darfield,N,NULL,BSL,Y,BSL2,y,2099-01-01 00:00:00.000,,C,2,1 ,N,,NULL,NULL,STSB,HOR2,1993-06-07 00:00:00.000,Barnsley East,0,0,546,1.5,Horizon 2 Panel Carousel,No,0,500-599,0.1-3,0,20,15,1.333333333,No,0,1,0,None
370,99 ,0,0050505 ,370050505,50505,,37050505,08511,Upper Sheffield Road,Upper Sheffield Road,Upper Sheffield Road/Pinder Oaks Lane,adj,Pinder Oaks Lane,Pinder Oaks Lane,1993-06-07 00:00:00.000,2099-01-01 00:00:00.000,Upper Sheffield Road/Pinder Oaks Lane,B,P,BCT,MKD,N,N,N,L,ACT,Opposite 22,Pinder Oaks Lane,Worsbrough Common,Barnsley,South Yorkshire,Central Ward,Barnsley District,405240,435164,53.542632929,-1.470834594,Worsbrough Common,SE,E0030720,Worsbrough Common,N,NULL,BSL,Y,BSL2,y,2099-01-01 00:00:00.000,,C,2,2 ,N,,NULL,NULL,NONE,TF2F,1993-06-07 00:00:00.000,Barnsley Central,0,0,2348.666667,6.452380952,Trueform 2 Panel Fixed,No,0,2000-2999,3-10,0,144,48,3,370050505,1,1,0,Products
370,99 ,0,0051177 ,370051177,51177,,37051177,08512,Upper Sheffield Road,Upper Sheffield Road,Upper Sheffield Road/Bluebell Bank,opp,Bluebell Bank,Bluebell Bank,1993-06-07 00:00:00.000,2099-01-01 00:00:00.000,Upper Sheffield Road/Bluebell Bank,B,P,BCT,MKD,N,N,N,L,ACT,Outside 64,Bluebell Bank,Worsbrough Bridge,Barnsley,South Yorkshire,Worsbrough Ward,Barnsley District,405118,435242,53.541531187,-1.469671302,Worsbrough Bridge,NW,E0030722,Worsbrough Bridge,N,   ,BSL,Y,BSL2,y,2099-01-01 00:00:00.000,,C,2,2 ,N,, ,  ,NONE,HOR2,1993-06-07 00:00:00.000,Barnsley East,0,0,2348.666667,6.452380952,Horizon 2 Panel Carousel,No,0,2000-2999,3-10,0,0,0,No Data,No,0,1,0,None
370,99 ,0,0055148 ,370055148,55148,,37055148,09210,Thurnscoe Lane,Thurnscoe Lane,Thurnscoe Lane/Norfolk Road,adj,Norfolk Road,Norfolk Road,1993-06-06 00:00:00.000,2099-01-01 00:00:00.000,Thurnscoe Lane/Norfolk Road,B,P,BCT,MKD,N,N,N,L,ACT,Sewage Works,Norfolk Road,Great Houghton,Barnsley,South Yorkshire,North East Ward,Barnsley District,406136,443832,53.550035981,-1.339915022,Great Houghton,NW,E0052704,Great Houghton (Barnsley),N,   ,BSL,N,BSL2,y,2099-01-01 00:00:00.000,,C,2,1 ,N,,NULL,NULL,BRSB,TF2R,1993-06-06 00:00:00.000,Barnsley East,0,0,515.6666667,1.416666667,Trueform 2 Panel Rotating,No,0,500-599,0.1-3,0,0,0,No Data,No,0,1,0,None
370,99 ,0,0050379 ,370050379,50379,,37050379,09210,Thurnscoe Lane,Thurnscoe Lane,Thurnscoe Lane/Norfolk Road,opp,Norfolk Road,Norfolk Road,1993-06-13 00:00:00.000,2099-01-01 00:00:00.000,Thurnscoe Lane/Norfolk Road,B,P,BCT,MKD,N,N,N,L,ACT,Sewage Works,Norfolk Road,Great Houghton,Barnsley,South Yorkshire,North East Ward,Barnsley District,406127,443875,53.549951509,-1.339267330,Great Houghton,SE,E0052704,Great Houghton (Barnsley),N,   ,BSL,Y,BSL2,y,2099-01-01 00:00:00.000,,C,2,1 ,N,,NULL,NULL,TCAP,TF2R,1993-06-13 00:00:00.000,Barnsley East,0,0,481,1.321428571,Trueform 2 Panel Rotating,No,0,400-499,0.1-3,0,14,7,2,No,0,1,0,None
370,99 ,0,0055246 ,370055246,55246,,37055246,09212,Thurnscoe Lane,Thurnscoe Lane,Thurnscoe Lane,at,Thurnscoe Lane,Thurnscoe Lane,1993-06-13 00:00:00.000,2099-01-01 00:00:00.000,Thurnscoe Lane,B,P,BCT,MKD,N,N,N,L,ACT,Allotment Gardens,,Great Houghton,Barnsley,South Yorkshire,North East Ward,Barnsley District,406231,443680,53.550902449,-1.342195754,Great Houghton,SE,E0052704,Great Houghton (Barnsley),N,   ,BSL,Y,BSL2,y,2099-01-01 00:00:00.000,,C,2,1 ,N,,NULL,NULL,TCAP,TF2R,1993-06-13 00:00:00.000,Barnsley East,0,0,481,1.321428571,Trueform 2 Panel Rotating,No,0,400-499,0.1-3,0,22,2,11,No,0,1,0,None
370,99 ,0,0055084 ,370055084,55084,,37055084,08604,Thurnscoe Bridge Lane,Thurnscoe Bridge Lane,Thurnscoe Bridge Lane/Derry Grove,opp,Derry Grove,Derry Grove,1993-06-07 00:00:00.000,2099-01-01 00:00:00.000,Thurnscoe Bridge Lane/Derry Grove,B,P,BCT,MKD,N,N,N,L,ACT,Layby,Derry Grove,Thurnscoe,Barnsley,South Yorkshire,Dearne North Ward,Barnsley District,405015,445659,53.539805488,-1.312505484,Thurnscoe,S ,E0030608,Thurnscoe,N,   ,BSL,Y,BSL2,y,2099-01-01 00:00:00.000,,C,2,1 ,N,,NULL,NULL,NONE,TF2R,1993-06-07 00:00:00.000,Wentworth and Dearne,0,0,905.6666667,2.488095238,Trueform 2 Panel Rotating,No,0,900-999,0.1-3,0,4,3,1.333333333,No,0,1,0,None
370,99 ,0,0055223 ,370055223,55223,,37055223,08625,Summer Lane,Summer Lane,Summer Lane/Queens Avenue,at,Queens Avenue,Queens Avenue,1993-06-07 00:00:00.000,2099-01-01 00:00:00.000,Summer Lane/Queens Avenue,B,P,BCT,MKD,N,N,N,L,ACT,End of Queens Ave,Queens Avenue,Pogmoor,Barnsley,South Yorkshire,Old Town Ward,Barnsley District,406797,433643,53.556726511,-1.493619027,Pogmoor,SE,E0030472,Pogmoor,N,NULL,BSL,Y,BSL2,y,2099-01-01 00:00:00.000,,C,2,1 ,N,,NULL,NULL,NONE,TF2R,1993-06-07 00:00:00.000,Barnsley Central,0,0,537.3333333,1.476190476,Trueform 2 Panel Rotating,No,0,500-599,0.1-3,0,11,7,1.571428571,No,0,1,0,None
370,99 ,0,0055053 ,370055053,55053,,37055053,08309,St Marys Place,St Marys Place,St Marys Place/Shambles Street,adj,Shambles Street,Shambles Street,1993-06-07 00:00:00.000,2099-01-01 00:00:00.000,St Marys Place/Shambles Street,B,P,BCT,MKD,N,N,N,L,ACT,Opp Town Hall,Shambles Street,Barnsley Centre,Barnsley,South Yorkshire,Central Ward,Barnsley District,406480,434342,53.553832218,-1.483102566,Barnsley Centre,N,E0057864,Barnsley Centre,Y,   ,BSL,N,BSL2,y,2099-01-01 00:00:00.000,,C,2,4 ,N,,  ,  ,NONE,TF2R,1993-06-07 00:00:00.000,Barnsley Central,0,0,2452.666667,6.738095238,Trueform 2 Panel Rotating,No,0,2000-2999,3-10,0,144,20,7.2,No,0,1,0,None
370,99 ,0,0055064 ,370055064,55064,,37055064,08312,Shambles Street,Shambles Street,Shambles Street/Peel Parade,at,Peel Parade,Shambles Street,1993-06-07 00:00:00.000,2099-01-01 00:00:00.000,Shambles Street/Peel Parade,B,P,BCT,MKD,N,N,N,L,ACT,Lifestyle Fitness,Peel Parade,Barnsley Centre,Barnsley,South Yorkshire,Central Ward,Barnsley District,406392,434212,53.553049737,-1.485074336,Barnsley Centre,SW,E0057864,Barnsley Centre,Y,   ,BSL,Y,BSL2,y,2099-01-01 00:00:00.000,,C,2,4 ,N,,,  ,NONE,HOR2,1993-06-07 00:00:00.000,Barnsley Central,0,0,1932.666667,5.30952381,Horizon 2 Panel Carousel,No,0,1000-1999,3-10,0,55,16,3.4375,370055064,1,1,0,None
370,99 ,0,0051093 ,370051093,51093,,37051093,09844,School Street,School Street,School Street/Orchard Way,adj,Orchard Way,Orchard Way,1993-06-07 00:00:00.000,2099-01-01 00:00:00.000,School Street/Orchard Way,B,P,BCT,MKD,N,N,N,L,ACT,Opp Ashberry Cl,Orchard Way,Thurnscoe,Barnsley,South Yorkshire,Dearne North Ward,Barnsley District,405861,445687,53.547406646,-1.311959769,Thurnscoe,S,E0030608,Thurnscoe,N,   ,BSL,Y,BSL2,y,2099-01-01 00:00:00.000,,C,2,1 ,N,,NULL,NULL,NONE,HOR2,1993-06-07 00:00:00.000,Wentworth and Dearne,0,0,1261,3.464285714,Horizon 2 Panel Carousel,No,0,1000-1999,3-10,0,0,0,No Data,No,0,1,0,None
370,99 ,0,0051092 ,370051092,51092,,37051092,09844,School Street,School Street,School Street/Ashberry Grove,adj,Ashberry Grove,Ashberry Close,1993-06-07 00:00:00.000,2099-01-01 00:00:00.000,School Street/Ashberry Grove,B,P,BCT,MKD,N,N,N,L,ACT,Opposite 34,Ashberry Grove,Thurnscoe,Barnsley,South Yorkshire,Dearne North Ward,Barnsley District,405894,445683,53.547703587,-1.312015324,Thurnscoe,N,E0030608,Thurnscoe,N,   ,BSL,Y,BSL2,y,2099-01-01 00:00:00.000,,C,2,1 ,N,,NULL,NULL,NONE,HOR2,1993-06-07 00:00:00.000,Wentworth and Dearne,0,0,442,1.214285714,Horizon 2 Panel Carousel,No,0,400-499,0.1-3,0,0,0,No Data,No,0,1,0,None
370,99 ,0,0055100 ,370055100,55100,,37055100,09195,Saltersbrook Road,Saltersbrook Road,Saltersbrook Road/Tempest Avenue,adj,Tempest Avenue,Tempest Avenue,1993-06-13 00:00:00.000,2099-01-01 00:00:00.000,Saltersbrook Road/Tempest Avenue,B,P,BCT,MKD,N,N,N,L,ACT,Telephone Box,Tempest Avenue,Darfield,Barnsley,South Yorkshire,Darfield Ward,Barnsley District,405069,441001,53.540674058,-1.382779937,Darfield,NW,E0030115,Darfield,N,NULL,BSL,Y,BSL2,y,2099-01-01 00:00:00.000,,C,2,1 ,N,,NULL,NULL,BRSB,TF2R,1993-06-13 00:00:00.000,Barnsley East,0,0,489.6666667,1.345238095,Trueform 2 Panel Rotating,No,0,400-499,0.1-3,0,0,0,No Data,370055100,1,1,0,Products
370,99 ,0,0055099 ,370055099,55099,,37055099,09195,Saltersbrook Road,Saltersbrook Road,Saltersbrook Road/Tempest Avenue,opp,Tempest Avenue,Tempest Avenue,1993-06-13 00:00:00.000,2099-01-01 00:00:00.000,Saltersbrook Road/Tempest Avenue,B,P,BCT,MKD,N,N,N,L,ACT,Telephone Box,Tempest Avenue,Darfield,Barnsley,South Yorkshire,Darfield Ward,Barnsley District,405063,440969,53.540622621,-1.383263558,Darfield,SE,E0030115,Darfield,N,NULL,BSL,N,BSL2,y,2099-01-01 00:00:00.000,,C,2,1 ,N,,NULL,NULL,BRSB,HOR2,1993-06-13 00:00:00.000,Barnsley East,0,0,489.6666667,1.345238095,Horizon 2 Panel Carousel,No,0,400-499,0.1-3,1,15,10,1.5,370055099,1,1,0,Products
370,99 ,0,0055094 ,370055094,55094,,37055094,09184,Saltersbrook Road,Saltersbrook Road,Saltersbrook Road/Nanny Marr Road,adj,Nanny Marr Road,Nanny Marr Road,1993-06-07 00:00:00.000,2099-01-01 00:00:00.000,Saltersbrook Road/Nanny Marr Road,B,P,BCT,MKD,N,N,N,L,ACT,Brick Shelter,Nanny Marr Road,Darfield,Barnsley,South Yorkshire,Darfield Ward,Barnsley District,404828,441578,53.538462765,-1.374105712,Darfield,NW,E0030115,Darfield,N,NULL,BSL,Y,BSL2,y,2099-01-01 00:00:00.000,,C,2,1 ,N,,NULL,NULL,BRSB,TF2R,1993-06-07 00:00:00.000,Barnsley East,0,0,489.6666667,1.345238095,Trueform 2 Panel Rotating,No,0,400-499,0.1-3,0,0,0,No Data,No,0,1,0,None
370,99 ,0,0055028 ,370055028,55028,,37055028,09184,Saltersbrook Road,Saltersbrook Road,Saltersbrook Road/Nanny Marr Road,opp,Nanny Marr Road,Nanny Marr Road,1993-06-07 00:00:00.000,2099-01-01 00:00:00.000,Saltersbrook Road/Nanny Marr Road,B,P,BCT,MKD,N,N,N,L,ACT,Opp Nanny Marr Road,Nanny Marr Road,Darfield,Barnsley,South Yorkshire,Darfield Ward,Barnsley District,404817,441631,53.538359713,-1.373307514,Darfield,SE,E0030115,Darfield,N,NULL,BSL,Y,BSL2,y,2099-01-01 00:00:00.000,,C,2,1 ,N,,NULL,NULL,NONE,HOR2,1993-06-07 00:00:00.000,Barnsley East,0,0,489.6666667,1.345238095,Horizon 2 Panel Carousel,No,0,400-499,0.1-3,0,9,6,1.5,370055028,1,1,0,None
370,99 ,0,0055105 ,370055105,55105,,37055105,09193,Saltersbrook Road,Saltersbrook Road,Saltersbrook Road/Highfield Range,opp,Highfield Range,Highfield Range,1993-06-13 00:00:00.000,2099-01-01 00:00:00.000,Saltersbrook Road/Highfield Range,B,P,BCT,MKD,N,N,N,L,ACT,Cemetery,Highfield Range,Darfield,Barnsley,South Yorkshire,Darfield Ward,Barnsley District,404993,441308,53.539966997,-1.378157719,Darfield,W,E0030115,Darfield,N,NULL,BSL,Y,BSL2,y,2099-01-01 00:00:00.000,,C,2,1 ,N,,NULL,NULL,BRSB,INF2,1993-06-13 00:00:00.000,Barnsley East,0,0,489.6666667,1.345238095,Manplas standard 2 panel caro,No,0,400-499,0.1-3,0,76,20,3.8,No,0,1,0,Products
370,99 ,0,0050883 ,370050883,50883,,37050883,08486,Sackup Lane,Sackup Lane,Sackup Lane/Station Road,adj,Station Road,Darton Primary,1993-06-07 00:00:00.000,2099-01-01 00:00:00.000,Sackup Lane/Station Road,B,P,BCT,MKD,Y,N,N,L,ACT,Opposite 8,Station Road,Bloomhouse Green,Barnsley,South Yorkshire,Darton East Ward,Barnsley District,410034,431716,53.585940158,-1.522379040,Bloomhouse Green,NE,E0030024,Bloomhouse Green,N,NULL,BSL,Y,BSL2,y,2099-01-01 00:00:00.000,Both Directions,C,2,1 ,N,,NULL,NULL,TCAP,TF2R,1993-06-07 00:00:00.000,Barnsley Central,0,0,1131,3.107142857,Trueform 2 Panel Rotating,No,0,1000-1999,3-10,0,0,0,No Data,No,0,1,0,None
370,99 ,0,0055370 ,370055370,55370,,37055370,08565,Bank End Avenue,Bank End Avenue,Bank End Avenue/Wellington Crescent,adj,Wellington Crescent,Wellington Crescent,1993-06-07 00:00:00.000,2099-01-01 00:00:00.000,Bank End Avenue/Wellington Crescent,B,P,BCT,MKD,N,N,N,L,ACT,Outside No. 1,Wellington Crescent,Worsbrough Dale,Barnsley,South Yorkshire,Worsbrough Ward,Barnsley District,404220,436215,53.533394041,-1.455093112,Worsbrough Dale,N ,E0030723,Worsbrough Dale,N,   ,BSL,Y,BSL2,y,2099-01-01 00:00:00.000,,C,2,1 ,N,,NULL,NULL,STSB,TF2R,1993-06-07 00:00:00.000,Barnsley East,0,0,1157,3.178571429,Trueform 2 Panel Rotating,No,0,1000-1999,3-10,0,0,0,No Data,No,0,1,0,None
370,99 ,0,0050681 ,370050681,50681,,37050681,08498,Sackup Lane,Sackup Lane,Sackup Lane/Edgehill Road,adj,Edgehill Road,Edgehill Road,1993-06-07 00:00:00.000,2099-01-01 00:00:00.000,Sackup Lane/Edgehill Road,B,P,BCT,MKD,N,N,N,L,ACT,Outside Post Office,Edgehill Road,Staincross,Barnsley,South Yorkshire,Darton East Ward,Barnsley District,410954,432408,53.594166907,-1.511831045,Staincross,N ,E0030558,Staincross,N,   ,BSL,Y,BSL2,y,2099-01-01 00:00:00.000,,C,2,1 ,N,,,  ,STSB,INF2,1993-06-07 00:00:00.000,Barnsley Central,0,0,86.66666667,0.238095238,Manplas standard 2 panel caro,No,0,1-99,0.1-3,0,0,0,No Data,No,0,1,0,None
370,99 ,0,0050881 ,370050881,50881,,37050881,08488,Sackup Lane,Sackup Lane,Sackup Lane/Cranborne Drive,adj,Cranborne Drive,Cranborne Drive,1993-06-07 00:00:00.000,2099-01-01 00:00:00.000,Sackup Lane/Cranborne Drive,B,P,BCT,MKD,N,N,N,L,ACT,Opposite 90,Cranborne Drive,Bloomhouse Green,Barnsley,South Yorkshire,Darton East Ward,Barnsley District,410315,431881,53.588455805,-1.519858080,Bloomhouse Green,N ,E0030024,Bloomhouse Green,N,NULL,BSL,Y,BSL2,y,2099-01-01 00:00:00.000,,C,2,1 ,N,,NULL,NULL,TCAP,TF2R,1993-06-07 00:00:00.000,Barnsley Central,0,0,1131,3.107142857,Trueform 2 Panel Rotating,No,0,1000-1999,3-10,0,3,3,1,No,0,1,0,None
370,99 ,0,0050414 ,370050414,50414,,37050414,08462,Bar Lane,Bar Lane,Bar Lane/Cloudberry Way,adj,Cloudberry Way,Cloudberry Way,1993-06-07 00:00:00.000,2099-01-01 00:00:00.000,Bar Lane/Cloudberry Way,B,P,BCT,MKD,N,N,N,L,ACT,Outside No. 51,Cloudberry Way,Mapplewell,Barnsley,South Yorkshire,Darton East Ward,Barnsley District,409791,433532,53.583643510,-1.494974189,Mapplewell,SE,E0030367,Mapplewell,N,NULL,BSL,Y,BSL2,y,2099-01-01 00:00:00.000,,R,2,1 ,N,,NULL,NULL,TCAP,TF2R,1993-06-07 00:00:00.000,Barnsley Central,0,0,1131,3.107142857,Trueform 2 Panel Rotating,No,0,1000-1999,3-10,0,52,33,1.575757576,No,0,1,0,None
370,99 ,0,0055329 ,370055329,55329,,37055329,09776,Barnburgh Lane,Barnburgh Lane,Barnburgh Lane/Windermere Avenue,Adj,Windermere Avenue,Windermere Avenue,1993-06-13 00:00:00.000,2099-01-01 00:00:00.000,Barnburgh Lane/Windermere Avenue,B,P,BCT,MKD,N,N,N,L,ACT,Opposite 37,Windermere Avenue,Goldthorpe,Barnsley,South Yorkshire,Dearne South Ward,Barnsley District,404000,446295,53.530627457,-1.303059188,Goldthorpe,W,E0030186,Goldthorpe,N,   ,BSL,N,BSL2,y,2099-01-01 00:00:00.000,,C,2,1 ,N,,  ,  ,STSB,HOR2,1993-06-13 00:00:00.000,Wentworth and Dearne,0,0,446.3333333,1.226190476,Horizon 2 Panel Carousel,No,0,400-499,0.1-3,0,6,5,1.2,No,0,1,0,None
370,99 ,0,0055467 ,370055467,55467,,37055467,08698,Redthorne Way,Redthorne Way,Redthorne Way/Henry Close,opp,Henry Close,Henry Close,2000-08-04 00:00:00.000,2099-01-01 00:00:00.000,Redthorne Way/Henry Close,B,P,BCT,MKD,N,N,N,L,ACT,Opposite Henry Close,Henry Close,Shafton,Barnsley,South Yorkshire,North East Ward,Barnsley District,411416,439029,53.597869597,-1.411744187,Shafton,W,E0052712,Shafton,N,   ,BSL,N,BSL2,y,2099-01-01 00:00:00.000,,C,2,1 ,N,,NULL,NULL,LPST,TF2R,2000-08-04 00:00:00.000,Barnsley East,0,0,394.3333333,1.083333333,Trueform 2 Panel Rotating,No,0,300-399,0.1-3,0,6,4,1.5,No,0,1,0,None
370,99 ,0,0055227 ,370055227,55227,,37055227,09122,Barnsley Road,Barnsley Road,Barnsley Road/Aldham House Lane,adj,Aldham House Lane,Aldham House Lane,1993-06-07 00:00:00.000,2099-01-01 00:00:00.000,Barnsley Road/Aldham House Lane,B,P,BCT,MKD,N,N,N,L,ACT,Outside 279,Aldham House Lane,Wombwell,Barnsley,South Yorkshire,Stairfoot Ward,Barnsley District,404237,438866,53.533357994,-1.415097469,Wombwell,W ,E0030701,Wombwell,N,   ,BSL,Y,BSL2,y,2099-01-01 00:00:00.000,,C,2,1 ,N,,NULL,NULL,NONE,HOR2,1993-06-07 00:00:00.000,Barnsley East,0,0,3003,8.25,Horizon 2 Panel Carousel,No,0,3000-3999,3-10,0,93,48,1.9375,370055227,1,1,0,None
370,99 ,0,0055346 ,370055346,55346,,37055346,09122,Barnsley Road,Barnsley Road,Barnsley Road/Aldham House Lane,opp,Aldham House Lane,Aldham House Lane,1993-06-07 00:00:00.000,2099-01-01 00:00:00.000,Barnsley Road/Aldham House Lane,B,P,BCT,MKD,N,N,N,L,ACT,Opposite 279,Aldham House Lane,Wombwell,Barnsley,South Yorkshire,Stairfoot Ward,Barnsley District,404245,438881,53.533428790,-1.414870185,Wombwell,SE,E0030701,Wombwell,N,   ,BSL,Y,BSL2,y,2099-01-01 00:00:00.000,,C,2,1 ,N,,NULL,NULL,NONE,HOR2,1993-06-07 00:00:00.000,Barnsley East,0,0,2899,7.964285714,Horizon 2 Panel Carousel,No,0,2000-2999,3-10,0,0,0,No Data,No,0,1,0,None
370,99 ,0,0055307 ,370055307,55307,,37055307,09124,Barnsley Road,Barnsley Road,Barnsley Road/Barnwell Crescent,nr,Barnwell Crescent,Barnwell Crescent,1993-06-07 00:00:00.000,2099-01-01 00:00:00.000,Barnsley Road/Barnwell Crescent,B,P,BCT,MKD,N,N,N,L,ACT,Opposite 44,Barnwell Crescent,Wombwell,Barnsley,South Yorkshire,Stairfoot Ward,Barnsley District,404013,439085,53.531328510,-1.411821484,Wombwell,NW,E0030701,Wombwell,N,   ,BSL,Y,BSL2,y,2099-01-01 00:00:00.000,,C,2,1 ,N,,NULL,NULL,NONE,HOR2,1993-06-07 00:00:00.000,Barnsley East,0,0,2686.666667,7.380952381,Horizon 2 Panel Carousel,No,0,2000-2999,3-10,0,42,14,3,370055307,1,1,0,None
370,99 ,0,0055348 ,370055348,55348,,37055348,09124,Barnsley Road,Barnsley Road,Barnsley Road/Barnwell Crescent,opp,Barnwell Crescent,Barnwell Crescent,1993-06-07 00:00:00.000,2099-01-01 00:00:00.000,Barnsley Road/Barnwell Crescent,B,P,BCT,MKD,N,N,N,L,ACT,Opp Barnwell Crescent,Barnwell Crescent,Wombwell,Barnsley,South Yorkshire,Stairfoot Ward,Barnsley District,404082,439052,53.531951120,-1.412310721,Wombwell,SE,E0030701,Wombwell,N,   ,BSL,Y,BSL2,y,2099-01-01 00:00:00.000,,C,2,1 ,N,,NULL,NULL,NONE,HOR2,1993-06-07 00:00:00.000,Barnsley East,0,0,2899,7.964285714,Horizon 2 Panel Carousel,No,0,2000-2999,3-10,0,0,0,No Data,370055348,1,1,0,None
370,99 ,0,0050435 ,370050435,50435,,37050435,08370,Barnsley Road,Barnsley Road,Barnsley Road/Bence Lane,adj,Bence Lane,Bence Lane,1993-06-06 00:00:00.000,2099-01-01 00:00:00.000,Barnsley Road/Bence Lane,B,P,BCT,MKD,N,N,N,L,ACT,Outside 146a,Bence Lane,Darton,Barnsley,South Yorkshire,Darton West Ward,Barnsley District,409285,431273,53.579234674,-1.529145408,Darton,N ,E0030118,Darton,N,   ,BSL,Y,BSL2,y,2099-01-01 00:00:00.000,,C,2,1 ,N,,  ,  ,TCAP,TF2R,1993-06-06 00:00:00.000,Barnsley Central,0,0,1737.666667,4.773809524,Trueform 2 Panel Rotating,No,0,1000-1999,3-10,1,18,3,6,370050435,1,1,0,None
370,99 ,0,0050265 ,370050265,50265,,37050265,09196,Barnsley Road,Barnsley Road,Barnsley Road/Billingley Green Lane,adj,Billingley Green Lane,Billingley Green Ln,1993-06-07 00:00:00.000,2099-01-01 00:00:00.000,Barnsley Road/Billingley Green Lane,B,P,BCT,MKD,N,N,N,L,ACT,Opp Cottages,Billingley Green Lane,Billingley,Barnsley,South Yorkshire,Darfield Ward,Barnsley District,404129,444007,53.531982984,-1.337555502,Billingley,E ,E0052700,Billingley,N,   ,BSL,Y,BSL2,y,2099-01-01 00:00:00.000,,C,2,1 ,N,,  ,  ,TCAP,TF2R,1993-06-07 00:00:00.000,Barnsley East,0,0,1274,3.5,Trueform 2 Panel Rotating,No,0,1000-1999,3-10,0,3,3,1,No,0,1,0,None
370,99 ,0,0056171 ,370056171,56171,,37056171,10956,Pogmoor Road,Pogmoor Road,Pogmoor Road/West Moor Crescent,56171,West Moor Crescent,West Moor Crescent,2021-12-22 00:00:00.000,2099-01-01 00:00:00.000,Pogmoor Road/West Moor Crescent,B,P,BCT,MKD,N,N,N,L,ACT,,West Moor Crescent,Pogmoor,Barnsley,South Yorkshire,Dodworth Ward,Barnsley District,406408,432573,53.553297432,-1.509810763,Pogmoor,S,E0030472,Pogmoor,N,PPT,BSL,Y,BSL2,y,2099-01-01 00:00:00.000,,C,2,0 ,N,,,  ,NONE,HOR2,2021-12-22 00:00:00.000,Penistone and Stocksbridge,0,0,650,1.785714286,Horizon 2 Panel Carousel,No,0,600-699,0.1-3,0,0,0,No Data,No,0,1,0,None
370,99 ,0,0056170 ,370056170,56170,,37056170,10956,Pogmoor Road,Pogmoor Road,Pogmoor Road/West Moor Crescent,56170,West Moor Crescent,West Moor Crescent,2021-12-22 00:00:00.000,2099-01-01 00:00:00.000,Pogmoor Road/West Moor Crescent,B,P,BCT,MKD,N,N,N,L,ACT,,West Moor Crescent,Pogmoor,Barnsley,South Yorkshire,Dodworth Ward,Barnsley District,406415,432559,53.553361213,-1.510021346,Pogmoor,N,E0030472,Pogmoor,N,PPT,BSL,Y,BSL2,y,2099-01-01 00:00:00.000,,C,2,0 ,N,,,  ,NONE,HOR2,2021-12-22 00:00:00.000,Penistone and Stocksbridge,0,0,537.3333333,1.476190476,Horizon 2 Panel Carousel,No,0,500-599,0.1-3,0,32,16,2,No,0,1,0,None
370,99 ,0,0050876 ,370050876,50876,,37050876,09791,Barnsley Road,Barnsley Road,Barnsley Road/High Street,adj,High Street,High Street,1993-06-07 00:00:00.000,2099-01-01 00:00:00.000,Barnsley Road/High Street,B,P,BCT,MKD,N,N,N,L,ACT,Opposite 56,High Street,Goldthorpe,Barnsley,South Yorkshire,Dearne North Ward,Barnsley District,404329,446075,53.533603698,-1.306329559,Goldthorpe,W,E0030186,Goldthorpe,Y,   ,BSL,Y,BSL2,y,2099-01-01 00:00:00.000,,R,2,2 ,N,,,  ,STSB,HOR2,1993-06-07 00:00:00.000,Wentworth and Dearne,0,0,2439.666667,6.702380952,Horizon 2 Panel Carousel,No,0,2000-2999,3-10,1,73,19,3.842105263,No,0,1,0,None
370,99 ,0,0055353 ,370055353,55353,,37055353,08638,Pogmoor Road,Pogmoor Road,Pogmoor Road/Farm House Lane,adj,Farm House Lane,Farm House Lane,1993-06-07 00:00:00.000,2099-01-01 00:00:00.000,Pogmoor Road/Farm House Lane,B,P,BCT,MKD,N,N,N,L,ACT,Bus Layby,Farm House Lane,Pogmoor,Barnsley,South Yorkshire,Dodworth Ward,Barnsley District,406547,432542,53.554548679,-1.510264244,Pogmoor,N ,E0030472,Pogmoor,N,   ,BSL,N,BSL2,y,2099-01-01 00:00:00.000,,C,2,1 ,N,,NULL,NULL,STSB,TF2R,1993-06-07 00:00:00.000,Penistone and Stocksbridge,0,0,537.3333333,1.476190476,Trueform 2 Panel Rotating,No,0,500-599,0.1-3,0,3,2,1.5,No,0,1,0,None
370,99 ,0,0050001 ,370050001,50001,,37050001,09140,Park Street,Park Street,Park Street/Reginald Road,opp,Reginald Road,Park St/Reginald Rd,1993-06-07 00:00:00.000,2099-01-01 00:00:00.000,Park Street/Reginald Road,B,P,BCT,MKD,N,N,N,L,ACT,Opposite 104,Reginald Road,Wombwell,Barnsley,South Yorkshire,Wombwell Ward,Barnsley District,402561,440564,53.518166365,-1.389697721,Wombwell,SE,E0030701,Wombwell,N,   ,BSL,Y,BSL2,y,2099-01-01 00:00:00.000,,C,2,2 ,N,,NULL,NULL,STSB,HOR2,1993-06-07 00:00:00.000,Barnsley East,0,0,2569.666667,7.05952381,Horizon 2 Panel Carousel,No,0,2000-2999,3-10,1,4,2,2,No,0,1,0,None
370,99 ,0,0050000 ,370050000,50000,,37050000,09140,Park Street,Park Street,Park Street/Lundhill Road,adj,Lundhill Road,Park St/Lundhill Rd,1993-06-07 00:00:00.000,2099-01-01 00:00:00.000,Park Street/Lundhill Road,B,P,BCT,MKD,N,N,N,L,ACT,Outside 116,Lundhill Road,Wombwell,Barnsley,South Yorkshire,Wombwell Ward,Barnsley District,402519,440599,53.517786180,-1.389175324,Wombwell,NW,E0030701,Wombwell,N,   ,BSL,Y,BSL2,y,2099-01-01 00:00:00.000,,R,2,1 ,N,,,  ,STSB,HOR2,1993-06-07 00:00:00.000,Barnsley East,0,0,2604.333333,7.154761905,Horizon 2 Panel Carousel,No,0,2000-2999,3-10,1,3,3,1,No,0,1,0,None
370,NULL,0,0056050 ,370056050,56050,NULL,37056050,10591,Park Spring Road,Park Spring Road,Park Spring Road/Houghton Main Colliery Roundabout,opp,Houghton Main Colliery Roundabout,Houghton Main,2011-04-15 00:00:00.000,2099-01-01 00:00:00.000,Park Spring Road/Houghton Main Colliery Roundabout,B,P,BCT,MKD,N,N,N,L,ACT,Houghton Main Colliery Roundabout,,Grimethorpe,Barnsley,South Yorkshire,Darfield Ward,Barnsley District,406232,441753,53.551067788,-1.371278441,Grimethorpe,N,E0030204,Grimethorpe,N,PPT,BSL,Y,BSL2,y,2099-01-01 00:00:00.000,,R,3,0 ,N,NULL, ,  ,TCAP,TF3R,2011-04-15 00:00:00.000,Barnsley East,0,0,1235,3.392857143,Trueform 3 Panel Rotating,No,0,1000-1999,3-10,1,0,0,No Data,370056050,1,1,0,None
370,NULL,0,0056049 ,370056049,56049,NULL,37056049,10591,Park Spring Road,Park Spring Road,Park Spring Road/Houghton Main Colliery Roundabout,adj,Houghton Main Colliery Roundabout,Houghton Main,2011-04-15 00:00:00.000,2099-01-01 00:00:00.000,Park Spring Road/Houghton Main Colliery Roundabout,B,P,BCT,MKD,N,N,N,L,ACT,Houghton Main Colliery Roundabout,,Grimethorpe,Barnsley,South Yorkshire,Darfield Ward,Barnsley District,406463,441790,53.553141031,-1.370689234,Grimethorpe,N,E0030204,Grimethorpe,N,PPT,BSL,Y,BSL2,y,2099-01-01 00:00:00.000,,R,2,0 ,N,NULL, ,  ,TCAP,TF3R,2011-04-15 00:00:00.000,Barnsley East,0,0,2088.666667,5.738095238,Trueform 3 Panel Rotating,No,0,2000-2999,3-10,1,32,14,2.285714286,370056049,1,1,0,None
370,99 ,0,0050214 ,370050214,50214,,37050214,09181,Barnsley Road,Barnsley Road,Barnsley Road/Upperwood Hall,nr,Upperwood Hall,Upperwood Hall,1993-06-07 00:00:00.000,2099-01-01 00:00:00.000,Barnsley Road/Upperwood Hall,B,P,BCT,MKD,N,N,N,L,ACT,Upperwood Hall/Playing Fields,Upperwood Hall,Darfield,Barnsley,South Yorkshire,Darfield Ward,Barnsley District,404848,440759,53.538706530,-1.386460109,Darfield,S,E0030115,Darfield,N,NULL,BSL,Y,BSL2,y,2099-01-01 00:00:00.000,,C,2,2 ,N,,NULL,NULL,TCAP,TF2R,1993-06-07 00:00:00.000,Barnsley East,0,0,589.3333333,1.619047619,Trueform 2 Panel Rotating,No,0,500-599,0.1-3,0,0,0,No Data,No,0,1,0,None
370,99 ,0,0055021 ,370055021,55021,,37055021,09958,Barnsley Road,Barnsley Road,Barnsley Road/Wellhouse Lane,nr,Wellhouse Lane,Wellhouse Lane,1993-06-07 00:00:00.000,2099-01-01 00:00:00.000,Barnsley Road/Wellhouse Lane,B,P,BCT,MKD,N,N,N,L,ACT,Opposite 29,Wellhouse Lane,Penistone,Barnsley,South Yorkshire,Penistone West Ward,Barnsley District,403989,424771,53.531979479,-1.627762487,Penistone,SW,E0052711,Penistone,N,   ,BSL,Y,BSL2,y,2099-01-01 00:00:00.000,,C,2,1 ,N,,NULL,NULL,NONE,TF2R,1993-06-07 00:00:00.000,Penistone and Stocksbridge,0,0,346.6666667,0.952380952,Trueform 2 Panel Rotating,No,0,300-399,0.1-3,1,0,0,No Data,No,0,1,0,None
370,99 ,0,0055318 ,370055318,55318,,37055318,08930,Park Road,Park Road,Park Road/Racecommon Road,adj,Racecommon Road,Racecommon Road,1993-06-07 00:00:00.000,2099-01-01 00:00:00.000,Park Road/Racecommon Road,B,P,BCT,MKD,N,N,N,L,ACT,St Edwards Church,Racecommon Road,Kingstone,Barnsley,South Yorkshire,Kingstone Ward,Barnsley District,405406,433778,53.544215598,-1.491730996,Kingstone,E ,E0030310,Kingstone (Barnsley),N,   ,BSL,Y,BSL2,y,2099-01-01 00:00:00.000,,C,2,1 ,N,,,  ,STSB,TF2R,1993-06-07 00:00:00.000,Barnsley Central,0,0,650,1.785714286,Trueform 2 Panel Rotating,No,0,600-699,0.1-3,0,0,0,No Data,No,0,1,0,None
370,99 ,0,0055032 ,370055032,55032,,37055032,08532,Park Road,Park Road,Park Road/Henry Street,adj,Henry Street,Park Road/Henry St,1993-06-07 00:00:00.000,2099-01-01 00:00:00.000,Park Road/Henry Street,B,P,BCT,MKD,N,N,N,L,ACT,Opp Lobwood,Henry Street,Worsbrough Bridge,Barnsley,South Yorkshire,Worsbrough Ward,Barnsley District,404097,435392,53.532344426,-1.467523014,Worsbrough Bridge,N ,E0030722,Worsbrough Bridge,N,   ,BSL,Y,BSL2,y,2099-01-01 00:00:00.000,,C,2,2 ,N,,,  ,NONE,HOR2,1993-06-07 00:00:00.000,Barnsley East,0,0,1945.666667,5.345238095,Horizon 2 Panel Carousel,No,0,1000-1999,3-10,0,368,126,2.920634921,No,0,1,0,None
370,99 ,0,0056172 ,370056172,56172,,37056172,10957,Olympus Way,Olympus Way,Olympus Way/Tankersley Lane,56172,Tankersley Lane,Olympus Way,2022-01-07 00:00:00.000,2099-01-01 00:00:00.000,Olympus Way/Tankersley Lane,B,P,BCT,MKD,N,N,N,L,ACT,Olympus Way,Tankersley Lane,Hoyland Common,Barnsley,South Yorkshire,Rockingham Ward,Barnsley District,399920,435368,53.494803173,-1.468354956,Hoyland Common,W,E0030285,Hoyland Common,N,PPT,BSL,N,BSL2,y,2099-01-01 00:00:00.000,,C,2,0 ,N,,,  ,NONE,HOR2,2022-01-07 00:00:00.000,Barnsley East,0,0,364,1,Horizon 2 Panel Carousel,No,0,300-399,0.1-3,0,5,4,1.25,No,0,1,0,None
370,99 ,0,0056173 ,370056173,56173,,37056173,10957,Olympus Way,Olympus Way,Olympus Way/Parkside Road,56173,Parkside Road,Olympus Way,2022-01-07 00:00:00.000,2099-01-01 00:00:00.000,Olympus Way/Parkside Road,B,P,BCT,MKD,N,N,N,L,ACT,Olympus Way,Parkside Road,Hoyland Common,Barnsley,South Yorkshire,Rockingham Ward,Barnsley District,399860,435611,53.494247553,-1.464699099,Hoyland Common,E,E0030285,Hoyland Common,N,PPT,BSL,N,BSL2,y,2023-01-01 00:00:00.000,,C,2,0 ,N,,,  ,NONE,HOR2,2022-01-07 00:00:00.000,Barnsley East,0,0,390,1.071428571,Horizon 2 Panel Carousel,No,0,300-399,0.1-3,0,17,5,3.4,No,0,1,0,None
370,99 ,0,0051157 ,370051157,51157,,37051157,08456,Newstead Road,Newstead Road,Newstead Road/Lindhurst Road,nr,Lindhurst Road,Newstead Rd/School,1993-06-07 00:00:00.000,2099-01-01 00:00:00.000,Newstead Road/Lindhurst Road,B,P,BCT,MKD,N,N,N,L,ACT,Opp School,Lindhurst Road,Athersley North,Barnsley,South Yorkshire,St Helens Ward,Barnsley District,409907,434479,53.584624909,-1.480657692,Athersley North,S ,N0077957,Athersley North,N,NULL,BSL,Y,BSL2,y,2099-01-01 00:00:00.000,,C,2,1 ,N,,NULL,NULL,NONE,TF2R,1993-06-07 00:00:00.000,Barnsley Central,0,0,1178.666667,3.238095238,Trueform 2 Panel Rotating,No,0,1000-1999,3-10,0,0,0,No Data,No,0,1,0,Products
370,99 ,0,0050547 ,370050547,50547,,37050547,09422,Newsome Avenue,Newsome Avenue,Newsome Avenue/Summer Lane,at,Summer Lane,Summer Lane,1993-06-07 00:00:00.000,2099-01-01 00:00:00.000,Newsome Avenue/Summer Lane,B,P,BCT,MKD,Y,N,N,L,ACT,O/S Summerwell Hostel,Summer Lane,Wombwell,Barnsley,South Yorkshire,Wombwell Ward,Barnsley District,403125,439180,53.523340211,-1.410499153,Wombwell,NW,E0030701,Wombwell,N,NULL,BSL,Y,BSL2,y,2099-01-01 00:00:00.000,Both Directions,C,2,1 ,N,,NULL,NULL,TCAP,HOR2,1993-06-07 00:00:00.000,Barnsley East,0,0,476.6666667,1.30952381,Horizon 2 Panel Carousel,No,0,400-499,0.1-3,0,5,3,1.666666667,No,0,1,0,None
370,99 ,0,0050892 ,370050892,50892,,37050892,08475,New Road,New Road,New Road/Longsight Road,adj,Longsight Road,Longsight Road,1993-06-07 00:00:00.000,2099-01-01 00:00:00.000,New Road/Longsight Road,B,P,BCT,MKD,N,N,N,L,ACT,Opposite No. 334,Longsight Road,Staincross,Barnsley,South Yorkshire,Darton East Ward,Barnsley District,410585,432395,53.590851158,-1.512065639,Staincross,NW,E0030558,Staincross,N,NULL,BSL,Y,BSL2,y,2099-01-01 00:00:00.000,,C,2,1 ,N,,NULL,NULL,TCAP,TF2R,1993-06-07 00:00:00.000,Barnsley Central,0,0,1196,3.285714286,Trueform 2 Panel Rotating,No,0,1000-1999,3-10,0,0,0,No Data,No,0,1,0,None
370,99 ,0,0055102 ,370055102,55102,,37055102,09182,Nanny Marr Road,Nanny Marr Road,Nanny Marr Road/School Street,adj,School Street,School Street,1993-06-07 00:00:00.000,2099-01-01 00:00:00.000,Nanny Marr Road/School Street,B,P,BCT,MKD,N,N,N,L,ACT,Brick Shelter,School Street,Darfield,Barnsley,South Yorkshire,Darfield Ward,Barnsley District,404753,441592,53.537787574,-1.373904423,Darfield,SW,E0030115,Darfield,N,NULL,BSL,N,BSL2,y,2099-01-01 00:00:00.000,,C,2,2 ,N,,NULL,NULL,BRSB,TF2R,1993-06-07 00:00:00.000,Barnsley East,0,0,1898,5.214285714,Trueform 2 Panel Rotating,No,0,1000-1999,3-10,0,36,13,2.769230769,No,0,1,0,Products
370,99 ,0,0055106 ,370055106,55106,,37055106,09111,Nanny Marr Road,Nanny Marr Road,Nanny Marr Road/Barnsley Road,after,Barnsley Road,Foulstone School,1993-06-07 00:00:00.000,2099-01-01 00:00:00.000,Nanny Marr Road/Barnsley Road,B,P,BCT,MKD,N,N,N,L,ACT,Darfield School,Barnsley Road,Darfield,Barnsley,South Yorkshire,Darfield Ward,Barnsley District,404455,441490,53.535117249,-1.375482760,Darfield,N ,E0030115,Darfield,Y,NULL,BSL,Y,BSL2,y,2099-01-01 00:00:00.000,,C,2,2 ,N,,NULL,NULL,BRSB,TF2R,1993-06-07 00:00:00.000,Barnsley East,0,0,1066,2.928571429,Trueform 2 Panel Rotating,No,0,1000-1999,0.1-3,0,0,0,No Data,No,0,1,0,None
370,99 ,0,0055103 ,370055103,55103,,37055103,09178,Nanny Marr Road,Nanny Marr Road,Nanny Marr Road/Barnsley Road,by,Barnsley Road,Foulstone School,1993-06-07 00:00:00.000,2099-01-01 00:00:00.000,Nanny Marr Road/Barnsley Road,B,P,BCT,MKD,N,N,N,L,ACT,Darfield School/Works,Barnsley Road,Darfield,Barnsley,South Yorkshire,Darfield Ward,Barnsley District,404398,441500,53.534604156,-1.375339430,Darfield,S ,E0030115,Darfield,Y,NULL,BSL,Y,BSL2,y,2099-01-01 00:00:00.000,,C,2,2 ,N,,NULL,NULL,BRSB,HOR2,1993-06-07 00:00:00.000,Barnsley East,0,0,1161.333333,3.19047619,Horizon 2 Panel Carousel,No,0,1000-1999,3-10,0,22,11,2,No,0,1,0,None
370,99 ,0,0050626 ,370050626,50626,,37050626,08516,Mount Vernon Road,Mount Vernon Road,Mount Vernon Road/Mount Vernon Crescent,opp,Mount Vernon Crescent,Mt Vernon Road/Cres,1993-06-07 00:00:00.000,2099-01-01 00:00:00.000,Mount Vernon Road/Mount Vernon Crescent,B,P,BCT,MKD,N,N,N,L,ACT,Opp Mount Vernon Cres,Mount Vernon Crescent,Worsbrough Common,Barnsley,South Yorkshire,Worsbrough Ward,Barnsley District,404926,435108,53.539814443,-1.471714733,Worsbrough Common,N ,E0030720,Worsbrough Common,N,   ,BSL,Y,BSL2,y,2099-01-01 00:00:00.000,,C,2,1 ,N,,NULL,NULL,STSB,HOR2,1993-06-07 00:00:00.000,Barnsley East,0,0,502.6666667,1.380952381,Horizon 2 Panel Carousel,No,0,500-599,0.1-3,0,0,0,No Data,No,0,1,0,None
370,99 ,0,0055061 ,370055061,55061,,37055061,09828,Merrill Road,Merrill Road,Merrill Road/St Peters Gate,opp,St Peters Gate,The Whinwood,1993-06-07 00:00:00.000,2099-01-01 00:00:00.000,Merrill Road/St Peters Gate,B,P,BCT,MKD,N,N,N,L,ACT,O/S Recreation Ground,St Peters Gate,Thurnscoe,Barnsley,South Yorkshire,Dearne North Ward,Barnsley District,406181,445437,53.550304344,-1.315686112,Thurnscoe,W,E0030608,Thurnscoe,N,   ,BSL,Y,BSL2,y,2099-01-01 00:00:00.000,,R,2,1 ,N,, ,  ,NONE,HOR2,1993-06-07 00:00:00.000,Wentworth and Dearne,0,0,442,1.214285714,Horizon 2 Panel Carousel,No,0,400-499,0.1-3,1,7,2,3.5,370055061,1,1,0,None
370,99 ,0,0050360 ,370050360,50360,,37050360,09820,Merrill Road,Merrill Road,Merrill Road/Houghton Road,at,Houghton Road,Houghton Road,1993-06-07 00:00:00.000,2099-01-01 00:00:00.000,Merrill Road/Houghton Road,B,P,BCT,MKD,N,N,N,L,ACT,Road Junction,Houghton Road,Thurnscoe,Barnsley,South Yorkshire,Dearne North Ward,Barnsley District,405821,445118,53.547096210,-1.320552242,Thurnscoe,SW,E0030608,Thurnscoe,N,   ,BSL,Y,BSL2,y,2099-01-01 00:00:00.000,,C,2,1 ,N,,NULL,NULL,TCAP,TF2R,1993-06-07 00:00:00.000,Wentworth and Dearne,0,0,442,1.214285714,Trueform 2 Panel Rotating,No,0,400-499,0.1-3,1,0,0,No Data,No,0,1,0,None
370,99 ,0,0055868 ,370055868,55868,,37055868,00636,Merrill Road,Merrill Road,Merrill Road/Challenger Crescent,adj,Challenger Crescent,Callenger Crescent,2003-06-21 00:00:00.000,2099-01-01 00:00:00.000,Merrill Road/Challenger Crescent,B,P,BCT,MKD,N,N,N,L,ACT,O/S No. 77,Challenger Crescent,Thurnscoe,Barnsley,South Yorkshire,Dearne North Ward,Barnsley District,406206,445535,53.550520567,-1.314203473,Thurnscoe,E,E0030608,Thurnscoe,N,   ,NONE,Y,BSL2,y,2099-01-01 00:00:00.000,,C,2,1 ,N,,,  ,TCAP,HOR2,2003-06-21 00:00:00.000,Wentworth and Dearne,0,0,1261,3.464285714,Horizon 2 Panel Carousel,No,0,1000-1999,3-10,1,0,0,No Data,370055868,1,1,0,None
370,99 ,0,0050652 ,370050652,50652,,37050652,09828,Merrill Road,Merrill Road,Merrill Road/Burnside,adj,Burnside,Burnside,1993-06-07 00:00:00.000,2099-01-01 00:00:00.000,Merrill Road/Burnside,B,P,BCT,MKD,N,N,N,L,ACT,Outside 63,Burnside,Thurnscoe,Barnsley,South Yorkshire,Dearne North Ward,Barnsley District,406177,445341,53.550276670,-1.317135514,Thurnscoe,E,E0030608,Thurnscoe,N,   ,BSL,Y,BSL2,y,2099-01-01 00:00:00.000,,R,2,1 ,N,, ,  ,TCAP,HOR2,1993-06-07 00:00:00.000,Wentworth and Dearne,0,0,1261,3.464285714,Horizon 2 Panel Carousel,No,0,1000-1999,3-10,1,0,0,No Data,No,0,1,0,None
370,99 ,0,0050700 ,370050700,50700,,37050700,08863,Meadstead Drive,Meadstead Drive,Meadstead Drive/Manor Grove,adj,Manor Grove,Manor Grove,1993-06-07 00:00:00.000,2099-01-01 00:00:00.000,Meadstead Drive/Manor Grove,B,P,BCT,MKD,N,N,N,L,ACT,Opposite No. 41,Manor Grove,Royston,Barnsley,South Yorkshire,Royston Ward,Barnsley District,411309,435563,53.597153755,-1.464125025,Royston,E,E0030500,Royston (Barnsley),N,NULL,BSL,N,BSL2,y,2099-01-01 00:00:00.000,,C,2,1 ,N,,NULL,NULL,TCAP,TF2R,1993-06-07 00:00:00.000,Barnsley Central,0,0,671.6666667,1.845238095,Trueform 2 Panel Rotating,No,0,600-699,0.1-3,0,25,17,1.470588235,No,0,1,0,None
370,NULL,0,0055991 ,370055991,55991,NULL,37055991,01917,Maple Road,Maple Road,Maple Road/Westwood New Road,at,Westwood New Road,Westwood New Road,2009-07-17 00:00:00.000,2099-01-01 00:00:00.000,Maple Road/Westwood New Road,B,P,BCT,MKD,N,N,N,L,ACT,O/S Shell Garage,Westwood New Road,Tankersley,Barnsley,South Yorkshire,Penistone East Ward,Barnsley District,399128,433653,53.487796742,-1.494289244,Tankersley,SE,E0052715,Tankersley,N,PPT,BSL,N,BSL2,y,2099-01-01 00:00:00.000,,C,2,0 ,N,NULL,,  ,NONE,TF2R,2009-07-17 00:00:00.000,Penistone and Stocksbridge,0,0,1924,5.285714286,Trueform 2 Panel Rotating,No,0,1000-1999,3-10,0,9,3,3,No,0,1,0,None
370,99 ,0,0051109 ,370051109,51109,,37051109,01395,Maple Road,Maple Road,Maple Road/Maple Court,at,Maple Court,Maple Court,1993-06-07 00:00:00.000,2099-01-01 00:00:00.000,Maple Road/Maple Court,B,P,BCT,MKD,N,N,N,L,ACT,Maple Court,Maple Court,Tankersley,Barnsley,South Yorkshire,Penistone East Ward,Barnsley District,399373,433717,53.489994737,-1.493298520,Tankersley,SW,E0052715,Tankersley,N,   ,BSL,N,BSL2,y,2099-01-01 00:00:00.000,,C,2,0 ,N,,,  ,NONE,TF2R,1993-06-07 00:00:00.000,Penistone and Stocksbridge,0,0,1924,5.285714286,Trueform 2 Panel Rotating,No,0,1000-1999,3-10,0,3,2,1.5,No,0,1,0,None
370,99 ,0,0051126 ,370051126,51126,,37051126,02095,Manchester Road,Manchester Road,Manchester Road/Mortimer Road,opp,Mortimer Road,Mortimer Road,1993-06-07 00:00:00.000,2099-01-01 00:00:00.000,Manchester Road/Mortimer Road,B,P,BCT,MKD,N,N,N,L,ACT,Bus Layby,Mortimer Road,Midhopestones,Barnsley,South Yorkshire,Penistone West Ward,Barnsley District,399807,423706,53.494439677,-1.644144077,Midhopestones,SE,E0030389,Midhopestones,N,   ,BSL,N,BSL2,y,2099-01-01 00:00:00.000,,C,2,1 ,N,,,  ,STSB,TF2R,1993-06-07 00:00:00.000,Penistone and Stocksbridge,0,0,13,0.035714286,Trueform 2 Panel Rotating,No,0,1-99,0.1-3,0,0,0,No Data,No,0,1,0,None
370,99 ,0,0055288 ,370055288,55288,,37055288,09842,Lingamore Leys,Lingamore Leys,Lingamore Leys/Willow Road,opp,Willow Road,Willow Road,1993-06-07 00:00:00.000,2099-01-01 00:00:00.000,Lingamore Leys/Willow Road,B,P,BCT,MKD,N,N,N,L,ACT,O/S Fields,Willow Road,Thurnscoe,Barnsley,South Yorkshire,Dearne North Ward,Barnsley District,406124,445729,53.549766760,-1.311287591,Thurnscoe,SE,E0030608,Thurnscoe,N,   ,NONE,Y,BSL2,y,2099-01-01 00:00:00.000,,C,2,1 ,N,,,  ,NONE,HOR2,1993-06-07 00:00:00.000,Wentworth and Dearne,0,0,1261,3.464285714,Horizon 2 Panel Carousel,No,0,1000-1999,3-10,0,0,0,No Data,370055288,1,1,0,None
370,99 ,0,0050342 ,370050342,50342,,37050342,09858,Lidget Lane,Lidget Lane,Lidget Lane/Lockwood Lane,nr,Lockwood Lane,Lockwood Lane,1993-06-07 00:00:00.000,2099-01-01 00:00:00.000,Lidget Lane/Lockwood Lane,B,P,BCT,MKD,N,N,N,L,ACT,Opposite 103,Lockwood Lane,Thurnscoe,Barnsley,South Yorkshire,Dearne North Ward,Barnsley District,405442,446316,53.543585849,-1.302529517,Thurnscoe,W,E0030608,Thurnscoe,N,   ,BSL,Y,BSL2,y,2099-01-01 00:00:00.000,,C,2,1 ,N,,NULL,NULL,TCAP,HOR2,1993-06-07 00:00:00.000,Wentworth and Dearne,0,0,515.6666667,1.416666667,Horizon 2 Panel Carousel,No,0,500-599,0.1-3,0,0,0,No Data,No,0,1,0,None
370,99 ,0,0055243 ,370055243,55243,,37055243,08167,Huddersfield Road,Huddersfield Road,Huddersfield Road/Wellthorne Lane,opp,Wellthorne Lane,Wellthorne Lane,1993-06-07 00:00:00.000,2099-01-01 00:00:00.000,Huddersfield Road/Wellthorne Lane,B,P,BCT,MKD,N,N,N,L,ACT,Opp Playground,Wellthorne Lane,Ingbirchworth,Barnsley,South Yorkshire,Penistone West Ward,Barnsley District,406213,422095,53.552087978,-1.667976927,Ingbirchworth,SE,N0064899,Ingbirchworth,Y,   ,BSL,Y,BSL2,y,2099-01-01 00:00:00.000,,C,2,1 ,N,,NULL,NULL,STSB,CR2F,1993-06-07 00:00:00.000,Penistone and Stocksbridge,0,0,286,0.785714286,2 panel carousel with facia,No,0,200-299,0.1-3,0,0,0,No Data,No,0,1,0,None
370,99 ,0,0055007 ,370055007,55007,,37055007,08336,Huddersfield Road,Huddersfield Road,Huddersfield Road/Rowland Road,Adj,Rowland Road,Rowland Road,1993-06-07 00:00:00.000,2099-01-01 00:00:00.000,Huddersfield Road/Rowland Road,B,P,BCT,MKD,N,N,N,L,ACT,Opposite 169,Rowland Road,Wilthorpe,Barnsley,South Yorkshire,Old Town Ward,Barnsley District,407649,433278,53.564407446,-1.499038175,Wilthorpe,W ,E0030692,Wilthorpe,N,   ,BSL,Y,BSL2,y,2099-01-01 00:00:00.000,,C,2,1 ,N,,  ,  ,NONE,HOR2,1993-06-07 00:00:00.000,Barnsley Central,0,0,1295.666667,3.55952381,Horizon 2 Panel Carousel,No,0,1000-1999,3-10,0,9,2,4.5,No,0,1,0,None
370,99 ,0,0055305 ,370055305,55305,,37055305,09554,Hoyland Road,Hoyland Road,Hoyland Road/Stead Lane,adj,Stead Lane,Stead Lane,1993-06-07 00:00:00.000,2099-01-01 00:00:00.000,Hoyland Road/Stead Lane,B,P,BCT,MKD,N,N,N,L,ACT,Opposite 84,Stead Lane,Hoyland Common,Barnsley,South Yorkshire,Rockingham Ward,Barnsley District,400304,435874,53.498220421,-1.460684444,Hoyland Common,SW,E0030285,Hoyland Common,N,   ,BSL,Y,BSL2,y,2099-01-01 00:00:00.000,,C,2,2 ,N,,NULL,NULL,STSB,TF2R,1993-06-07 00:00:00.000,Barnsley East,0,0,2309.666667,6.345238095,Trueform 2 Panel Rotating,No,0,2000-2999,3-10,0,0,0,No Data,No,0,1,0,None
370,99 ,0,0055234 ,370055234,55234,,37055234,09912,Howbrook Lane,Howbrook Lane,Howbrook Lane/Carr Head Road,adj,Carr Head Road,Howbrook Farm,1993-06-06 00:00:00.000,2099-01-01 00:00:00.000,Howbrook Lane/Carr Head Road,B,P,BCT,MKD,N,N,N,L,ACT,Opp Wooden Shelter,Carr Head Road,Howbrook,Barnsley,South Yorkshire,Penistone East Ward,Barnsley District,398161,432562,53.479173645,-1.510830811,Howbrook,SE,E0030284,Howbrook,Y,   ,BSL,Y,BSL2,y,2099-01-01 00:00:00.000,,C,2,1 ,N,,NULL,NULL,STSB,HOR2,1993-06-06 00:00:00.000,Penistone and Stocksbridge,0,0,190.6666667,0.523809524,Horizon 2 Panel Carousel,No,0,100-199,0.1-3,0,2,2,1,No,0,1,0,None
370,99 ,0,0055043 ,370055043,55043,,37055043,09824,Houghton Road,Houghton Road,Houghton Road/Stotfold Road,opp,Stotfold Road,The Thurnscoe Pub,1993-06-07 00:00:00.000,2099-01-01 00:00:00.000,Houghton Road/Stotfold Road,B,P,BCT,MKD,N,N,N,L,ACT,The Thurnscoe,Stotfold Road,Thurnscoe,Barnsley,South Yorkshire,Dearne North Ward,Barnsley District,405747,445436,53.546403772,-1.315764099,Thurnscoe,W,E0030608,Thurnscoe,N,   ,BSL,Y,BSL2,y,2099-01-01 00:00:00.000,,C,2,1 ,N,,NULL,NULL,NONE,HOR2,1993-06-07 00:00:00.000,Wentworth and Dearne,0,0,897,2.464285714,Horizon 2 Panel Carousel,No,0,800-899,0.1-3,0,39,8,4.875,No,0,1,0,None
370,99 ,0,0055037 ,370055037,55037,,37055037,09818,Houghton Road,Houghton Road,Houghton Road/Lorne Road,nr,Lorne Road,Lorne Road,1993-06-07 00:00:00.000,2099-01-01 00:00:00.000,Houghton Road/Lorne Road,B,P,BCT,MKD,N,N,N,L,ACT,Opposite 156,Lorne Road,Thurnscoe,Barnsley,South Yorkshire,Dearne North Ward,Barnsley District,405799,445052,53.546904132,-1.321551395,Thurnscoe,W,E0030608,Thurnscoe,N,   ,BSL,Y,BSL2,y,2099-01-01 00:00:00.000,,C,2,1 ,N,,NULL,NULL,NONE,INF2,1993-06-07 00:00:00.000,Wentworth and Dearne,0,0,515.6666667,1.416666667,Manplas standard 2 panel caro,No,0,500-599,0.1-3,0,40,20,2,No,0,1,0,None
370,99 ,0,0055375 ,370055375,55375,,37055375,08394,Honeywell Grove,Honeywell Grove,Honeywell Grove/Halifax Street,opp,Halifax Street,Halifax Street,1993-06-07 00:00:00.000,2099-01-01 00:00:00.000,Honeywell Grove/Halifax Street,B,P,BCT,MKD,N,N,N,L,ACT,Opposite 40,Halifax Street,Honeywell,Barnsley,South Yorkshire,Old Town Ward,Barnsley District,407738,434551,53.565125385,-1.479809381,Honeywell,S,E0030277,Honeywell,N,   ,BSL,N,BSL2,y,2099-01-01 00:00:00.000,,R,2,1 ,N,,NULL,NULL,STSB,TF2R,1993-06-07 00:00:00.000,Barnsley Central,0,0,1057.333333,2.904761905,Trueform 2 Panel Rotating,No,0,1000-1999,0.1-3,1,8,5,1.6,No,0,1,0,None
370,99 ,0,0055183 ,370055183,55183,,37055183,08955,Highstone Road,Highstone Road,Highstone Road/Warren Quarry Lane,adj,Warren Quarry Lane,Warren Quarry Lane,1993-06-07 00:00:00.000,2099-01-01 00:00:00.000,Highstone Road/Warren Quarry Lane,B,P,BCT,MKD,N,N,N,L,ACT,Opp Lockwood La,Warren Quarry Lane,Worsbrough Common,Barnsley,South Yorkshire,Kingstone Ward,Barnsley District,405165,434672,53.541991433,-1.478266977,Worsbrough Common,NE,E0030720,Worsbrough Common,N,   ,BSL,N,BSL2,y,2099-01-01 00:00:00.000,,C,2,1 ,N,,,  ,BRSB,HOR2,1993-06-07 00:00:00.000,Barnsley Central,0,0,650,1.785714286,Horizon 2 Panel Carousel,No,0,600-699,0.1-3,0,87,18,4.833333333,No,0,1,0,None
370,99 ,0,0055322 ,370055322,55322,,37055322,08955,Highstone Road,Highstone Road,Highstone Road/Dickinson Road,opp,Dickinson Road,Dickinson Road,1993-06-07 00:00:00.000,2099-01-01 00:00:00.000,Highstone Road/Dickinson Road,B,P,BCT,MKD,N,N,N,L,ACT,Opp Dickinson Rd,Dickinson Road,Worsbrough Common,Barnsley,South Yorkshire,Kingstone Ward,Barnsley District,405146,434672,53.541820662,-1.478269076,Worsbrough Common,SW,E0030720,Worsbrough Common,N,   ,BSL,Y,BSL2,y,2099-01-01 00:00:00.000,,C,2,1 ,N,,,  ,STSB,TF2R,1993-06-07 00:00:00.000,Barnsley Central,0,0,537.3333333,1.476190476,Trueform 2 Panel Rotating,No,0,500-599,0.1-3,0,4,4,1,No,0,1,0,Products
370,99 ,0,0050799 ,370050799,50799,,37050799,09042,Birk Avenue,Birk Avenue,Birk Avenue/Colley Crescent,adj,Colley Crescent,Birk Avenue,1993-06-07 00:00:00.000,2099-01-01 00:00:00.000,Birk Avenue/Colley Crescent,B,P,BCT,MKD,N,N,N,L,ACT,Opposite 50,Colley Crescent,Kendray,Barnsley,South Yorkshire,Stairfoot Ward,Barnsley District,405102,436325,53.541313833,-1.453331563,Kendray,NW,E0030306,Kendray,N,   ,BSL,Y,BSL2,y,2099-01-01 00:00:00.000,,C,2,1 ,N,,,  ,TCAP,TF2R,1993-06-07 00:00:00.000,Barnsley East,0,0,1157,3.178571429,Trueform 2 Panel Rotating,No,0,1000-1999,3-10,0,0,0,No Data,No,0,1,0,None
370,99 ,0,0055256 ,370055256,55256,,37055256,09324,High Street,High Street,High Street/West End Avenue,adj,West End Avenue,High St/West End Av,1993-06-07 00:00:00.000,2099-01-01 00:00:00.000,High Street/West End Avenue,B,P,BCT,MKD,N,N,N,L,ACT,Opposite 159,West End Avenue,Royston,Barnsley,South Yorkshire,Royston Ward,Barnsley District,411485,435502,53.598739741,-1.465026701,Royston,SW,E0030500,Royston (Barnsley),N,NULL,BSL,Y,BSL2,y,2099-01-01 00:00:00.000,,C,2,1 ,N,,NULL,NULL,STSB,HOR2,1993-06-07 00:00:00.000,Barnsley Central,0,0,572,1.571428571,Horizon 2 Panel Carousel,No,0,500-599,0.1-3,0,13,5,2.6,No,0,1,0,None
370,99 ,0,0055282 ,370055282,55282,,37055282,09218,High Street,High Street,High Street/School Street,adj,School Street,High St/School St,1993-06-13 00:00:00.000,2099-01-01 00:00:00.000,High Street/School Street,B,P,BCT,MKD,N,N,N,L,ACT,Opp Milton St,School Street,Great Houghton,Barnsley,South Yorkshire,North East Ward,Barnsley District,406731,442948,53.555456550,-1.353174767,Great Houghton,SE,E0052704,Great Houghton (Barnsley),N,   ,NONE,Y,BSL2,y,2099-01-01 00:00:00.000,,C,2,1 ,N,,NULL,NULL,STSB,TF2R,1993-06-13 00:00:00.000,Barnsley East,0,0,996.6666667,2.738095238,Trueform 2 Panel Rotating,No,0,900-999,0.1-3,0,27,3,9,No,0,1,0,None
370,99 ,0,0055157 ,370055157,55157,,37055157,09218,High Street,High Street,High Street/Pear Tree Close,adj,Pear Tree Close,Pear Tree Close,1993-06-13 00:00:00.000,2099-01-01 00:00:00.000,High Street/Pear Tree Close,B,P,BCT,MKD,N,N,N,L,ACT,O/S Sub Station,Pear Tree Close,Great Houghton,Barnsley,South Yorkshire,North East Ward,Barnsley District,406751,442912,53.555639241,-1.353715408,Great Houghton,NW,E0052704,Great Houghton (Barnsley),N,   ,BSL,Y,BSL2,y,2099-01-01 00:00:00.000,,C,2,1 ,N,,NULL,NULL,BRSB,HOR2,1993-06-13 00:00:00.000,Barnsley East,0,0,996.6666667,2.738095238,Horizon 2 Panel Carousel,No,0,900-999,0.1-3,0,15,8,1.875,No,0,1,0,None
370,99 ,0,0055089 ,370055089,55089,,37055089,09786,High Street,High Street,High Street/Jackson Street,opp,Jackson Street,High St/Jackson St,1993-06-13 00:00:00.000,2099-01-01 00:00:00.000,High Street/Jackson Street,B,P,BCT,MKD,N,N,N,L,ACT,Adj to ASDA,Jackson Street,Goldthorpe,Barnsley,South Yorkshire,Dearne North Ward,Barnsley District,404266,446213,53.533025384,-1.304256978,Goldthorpe,S,E0030186,Goldthorpe,Y,   ,BSL,Y,BSL2,y,2099-01-01 00:00:00.000,,R,2,2 ,N,,,  ,NONE,HOR2,1993-06-13 00:00:00.000,Wentworth and Dearne,0,0,1958.666667,5.380952381,Horizon 2 Panel Carousel,No,0,1000-1999,3-10,1,19,10,1.9,No,0,1,0,None
370,99 ,0,0055289 ,370055289,55289,,37055289,09221,High Street,High Street,High Street/Crabtree Drive,nr,Crabtree Drive,Crabtree Drive,1993-06-13 00:00:00.000,2099-01-01 00:00:00.000,High Street/Crabtree Drive,B,P,BCT,MKD,N,N,N,L,ACT,Footpath,Crabtree Drive,Great Houghton,Barnsley,South Yorkshire,North East Ward,Barnsley District,407118,442860,53.558941981,-1.354450103,Great Houghton,N ,E0052704,Great Houghton (Barnsley),N,NULL,BSL,Y,BSL2,y,2019-10-24 23:00:00.000,,C,2,1 ,N,,NULL,NULL,STSB,TF2R,1993-06-13 00:00:00.000,Barnsley East,0,0,996.6666667,2.738095238,Trueform 2 Panel Rotating,No,0,900-999,0.1-3,0,3,2,1.5,No,0,1,0,None
370,99 ,0,0050916 ,370050916,50916,,37050916,08787,High Street,High Street,High Street/Chapel Street,adj,Chapel Street,High St/Chapel St,1993-06-07 00:00:00.000,2099-01-01 00:00:00.000,High Street/Chapel Street,B,P,BCT,MKD,N,N,N,L,ACT,Opp Lidate Lane,Chapel Street,Shafton,Barnsley,South Yorkshire,North East Ward,Barnsley District,411068,439112,53.594735679,-1.410533649,Shafton,S ,E0052712,Shafton,N,   ,BSL,Y,BSL2,y,2099-01-01 00:00:00.000,,C,2,1 ,N,,NULL,NULL,TCAP,TF2R,1993-06-07 00:00:00.000,Barnsley East,0,0,394.3333333,1.083333333,Trueform 2 Panel Rotating,No,0,300-399,0.1-3,0,9,6,1.5,No,0,1,0,None
370,99 ,0,0055247 ,370055247,55247,,37055247,02098,Green Moor Road,Green Moor Road,Green Moor Road/Chapel Lane,opp,Chapel Lane,Chapel Lane,1993-06-07 00:00:00.000,2099-01-01 00:00:00.000,Green Moor Road/Chapel Lane,B,P,BCT,MKD,Y,N,N,L,ACT,Opposite Chapel,Chapel Lane,Green Moor,Barnsley,South Yorkshire,Penistone East Ward,Barnsley District,399486,428057,53.491341389,-1.578591078,Green Moor,E ,E0030192,Green Moor,Y,   ,BSL,Y,BSL2,y,2099-01-01 00:00:00.000,Both Directions,R,2,1 ,N,,,  ,STSB,HOR2,1993-06-07 00:00:00.000,Penistone and Stocksbridge,0,0,338,0.928571429,Horizon 2 Panel Carousel,No,0,300-399,0.1-3,1,0,0,No Data,No,0,1,0,None
370,99 ,0,0050207 ,370050207,50207,,37050207,09164,George Street,George Street,George Street/Pitt Street,opp,Pitt Street,Pitt Street,1993-06-07 00:00:00.000,2099-01-01 00:00:00.000,George Street/Pitt Street,B,P,BCT,MKD,N,N,N,L,ACT,Opp Pitt Street,Pitt Street,Darfield,Barnsley,South Yorkshire,Darfield Ward,Barnsley District,403996,440764,53.531048506,-1.386495323,Darfield,S,E0030115,Darfield,N,NULL,BSL,Y,BSL2,y,2099-01-01 00:00:00.000,,C,2,1 ,N,,NULL,NULL,STSB,HOR2,1993-06-07 00:00:00.000,Barnsley East,0,0,736.6666667,2.023809524,Horizon 2 Panel Carousel,No,0,700-799,0.1-3,0,52,8,6.5,No,0,1,0,None
370,99 ,0,0050417 ,370050417,50417,,37050417,08318,Gawber Road,Gawber Road,Gawber Road/Barnsley Hospital,adj,Barnsley Hospital,Barnsley Hospital,1993-06-07 00:00:00.000,2099-01-01 00:00:00.000,Gawber Road/Barnsley Hospital,B,P,BCT,MKD,N,N,N,L,ACT,Barnsley Hospital,Pogmoor Road,Gawber,Barnsley,South Yorkshire,Old Town Ward,Barnsley District,407051,433372,53.559026694,-1.497682662,Gawber,NW,E0030181,Gawber,N,   ,BSL,Y,BSL2,y,2099-01-01 00:00:00.000,,C,2,2 ,N,,BH,2 ,STSB,HOR2,1993-06-07 00:00:00.000,Barnsley Central,0,0,1941.333333,5.333333333,Horizon 2 Panel Carousel,No,0,1000-1999,3-10,0,79,32,2.46875,No,0,1,0,None
370,99 ,0,0055359 ,370055359,55359,,37055359,09503,Fitzwilliam Street,Fitzwilliam Street,Fitzwilliam Street/Wentworth Road,adj,Wentworth Road,Wentworth Road,1993-06-07 00:00:00.000,2099-01-01 00:00:00.000,Fitzwilliam Street/Wentworth Road,B,P,BCT,MKD,N,N,N,L,ACT,Opposite 88,Wentworth Road,Elsecar,Barnsley,South Yorkshire,Hoyland Milton Ward,Barnsley District,399916,438409,53.494554670,-1.422519879,Elsecar,NW,E0030155,Elsecar,Y,   ,BSL,Y,BSL2,y,2099-01-01 00:00:00.000,,C,2,1 ,N,,,  ,STSB,TF2R,1993-06-07 00:00:00.000,Barnsley East,0,0,1503.666667,4.130952381,Trueform 2 Panel Rotating,No,0,1000-1999,3-10,0,65,18,3.611111111,No,0,1,0,None
370,99 ,0,0050770 ,370050770,50770,,37050770,10544,Fish Dam Lane,Fish Dam Lane,Fish Dam Lane/Carr Street,adj,Carr Street,Carr Street,1993-06-07 00:00:00.000,2099-01-01 00:00:00.000,Fish Dam Lane/Carr Street,B,P,BCT,MKD,N,N,N,L,ACT,Opp Carr Street,Carr Street,Monk Bretton,Barnsley,South Yorkshire,Monk Bretton Ward,Barnsley District,408280,436924,53.569835736,-1.443918980,Monk Bretton,NE,E0030396,Monk Bretton,N,   ,BSL,Y,BSL2,y,2099-01-01 00:00:00.000,,C,2,1 ,N,,NULL,NULL,STSB,HOR2,1993-06-07 00:00:00.000,Barnsley Central,0,0,1477.666667,4.05952381,Horizon 2 Panel Carousel,No,0,1000-1999,3-10,0,0,0,No Data,No,0,1,0,None
370,99 ,0,0055844 ,370055844,55844,,37055844,04395,Fields End Road,Fields End Road,Fields End Road/Dunsil Lane,adj,Dunsil Lane,Dunsil Lane,2002-09-25 00:00:00.000,2099-01-01 00:00:00.000,Fields End Road/Dunsil Lane,B,P,BCT,MKD,N,N,N,L,ACT,O/S Sy Car Centre,Dunsil Lane,Goldthorpe,Barnsley,South Yorkshire,Dearne North Ward,Barnsley District,404386,445944,53.534127441,-1.308297473,Goldthorpe,N ,E0030186,Goldthorpe,N,   ,BSL,Y,BSL2,y,2099-01-01 00:00:00.000,,C,2,1 ,N,,,  ,TCAP,TF2R,2002-09-25 00:00:00.000,Wentworth and Dearne,0,0,593.6666667,1.630952381,Trueform 2 Panel Rotating,No,0,500-599,0.1-3,0,6,5,1.2,No,0,1,0,None
370,99 ,0,0050913 ,370050913,50913,,37050913,08752,Engine Lane,Engine Lane,Engine Lane/Hodroyd Lane,adj,Hodroyd Lane,Hodroyd Close,1993-06-06 00:00:00.000,2099-01-01 00:00:00.000,Engine Lane/Hodroyd Lane,B,P,BCT,MKD,N,N,N,L,ACT,Opp Hazledene Farm,Hodroyd Lane,Shafton,Barnsley,South Yorkshire,North East Ward,Barnsley District,410221,439751,53.587075108,-1.400987264,Shafton,N ,E0052712,Shafton,N,NULL,BSL,Y,BSL2,y,2099-01-01 00:00:00.000,,C,2,2 ,N,,NULL,NULL,TCAP,TF2R,1993-06-06 00:00:00.000,Barnsley East,0,0,849.3333333,2.333333333,Trueform 2 Panel Rotating,No,0,800-899,0.1-3,0,0,0,No Data,No,0,1,0,None
370,99 ,0,0050912 ,370050912,50912,,37050912,08752,Engine Lane,Engine Lane,Engine Lane/Hodroyd Lane,nr,Hodroyd Lane,Hodroyd Close,1993-06-07 00:00:00.000,2099-01-01 00:00:00.000,Engine Lane/Hodroyd Lane,B,P,BCT,MKD,N,N,N,L,ACT,Hazledene Farm,Hodroyd Lane,Shafton,Barnsley,South Yorkshire,North East Ward,Barnsley District,409942,439841,53.584560706,-1.399663312,Shafton,N ,E0052712,Shafton,N,NULL,BSL,Y,BSL2,y,2099-01-01 00:00:00.000,,C,2,1 ,N,,NULL,NULL,TCAP,HOR2,1993-06-07 00:00:00.000,Barnsley East,0,0,884,2.428571429,Horizon 2 Panel Carousel,No,0,800-899,0.1-3,0,0,0,No Data,No,0,1,0,None
370,99 ,0,0055063 ,370055063,55063,,37055063,08302,Eldon Street,Eldon Street,Eldon Street/Market Hill,nr,Market Hill,Market Hill,1993-06-07 00:00:00.000,2099-01-01 00:00:00.000,Eldon Street/Market Hill,B,P,BCT,MKD,N,N,N,L,ACT,Outside Halifax Bank,Market Hill,Barnsley Centre,Barnsley,South Yorkshire,Central Ward,Barnsley District,406368,434484,53.552816290,-1.480971583,Barnsley Centre,SW,E0057864,Barnsley Centre,Y,   ,BSL,Y,BSL2,y,2099-01-01 00:00:00.000,,R,2,4 ,N,,  ,  ,NONE,HOR2,1993-06-07 00:00:00.000,Barnsley Central,0,0,4090.666667,11.23809524,Horizon 2 Panel Carousel,No,0,4000-4999,10-20,1,38,22,1.727272727,370055063,1,1,0,None
370,99 ,0,0050923 ,370050923,50923,,37050923,09090,Doncaster Road,Doncaster Road,Doncaster Road/Wood Laithes Farm,adj,Wood Laithes Farm,Wood Laithes Farm,1993-06-07 00:00:00.000,2099-01-01 00:00:00.000,Doncaster Road/Wood Laithes Farm,B,P,BCT,MKD,N,N,N,L,ACT,Wood Laithes Farm,Wood Laithes Farm,Ardsley,Barnsley,South Yorkshire,Stairfoot Ward,Barnsley District,405727,438914,53.546746385,-1.414188566,Ardsley,E ,E0029967,Ardsley,N,   ,BSL,Y,BSL2,y,2099-01-01 00:00:00.000,NULL,C,2,1 ,N,,NULL,NULL,TCAP,TF2R,1993-06-07 00:00:00.000,Barnsley East,0,0,1525.333333,4.19047619,Trueform 2 Panel Rotating,No,0,1000-1999,3-10,0,0,0,No Data,370050923,1,1,0,None
370,99 ,0,0050751 ,370050751,50751,,37050751,09078,Doncaster Road,Doncaster Road,Doncaster Road/St Pauls Parade,opp,St Pauls Parade,Coach and Horses,1993-06-07 00:00:00.000,2099-01-01 00:00:00.000,Doncaster Road/St Pauls Parade,B,P,BCT,MKD,N,N,N,L,ACT,Coach and Horses,St Pauls Parade,Ardsley,Barnsley,South Yorkshire,Stairfoot Ward,Barnsley District,405671,437783,53.546325408,-1.431263200,Ardsley,E ,E0029967,Ardsley,N,NULL,BSL,Y,BSL2,y,2099-01-01 00:00:00.000,,R,2,1 ,N,,NULL,NULL,NONE,HOR2,1993-06-07 00:00:00.000,Barnsley East,0,0,1525.333333,4.19047619,Horizon 2 Panel Carousel,No,0,1000-1999,3-10,1,190,29,6.551724138,No,0,1,0,None
370,99 ,0,0050990 ,370050990,50990,,37050990,09794,Doncaster Road,Doncaster Road,Doncaster Road/Market Street,opp,Market Street,Lockwood Road,1993-06-13 00:00:00.000,2099-01-01 00:00:00.000,Doncaster Road/Market Street,B,P,BCT,MKD,N,N,N,L,ACT,Opp Market St,Market Street,Goldthorpe,Barnsley,South Yorkshire,Dearne North Ward,Barnsley District,404418,446356,53.534378946,-1.302077264,Goldthorpe,NE,E0030186,Goldthorpe,Y,NULL,BSL,Y,BSL2,y,2099-01-01 00:00:00.000,,C,2,1 ,N,,NULL,NULL,NONE,HOR2,1993-06-13 00:00:00.000,Wentworth and Dearne,0,0,489.6666667,1.345238095,Horizon 2 Panel Carousel,No,0,400-499,0.1-3,0,101,32,3.15625,No,0,1,0,None
370,99 ,0,0050805 ,370050805,50805,,37050805,09018,Doncaster Road,Doncaster Road,Doncaster Road/Gordon Street,adj,Gordon Street,Gordon Street,1993-06-07 00:00:00.000,2099-01-01 00:00:00.000,Doncaster Road/Gordon Street,B,P,BCT,MKD,N,N,N,L,ACT,O/S Playground,Gordon Street,Stairfoot,Barnsley,South Yorkshire,Stairfoot Ward,Barnsley District,405619,437021,53.545912141,-1.442768566,Stairfoot,E,E0030559,Stairfoot,N,   ,BSL,Y,BSL2,y,2099-01-01 00:00:00.000,,C,2,2 ,N,,,  ,NONE,HOR2,1993-06-07 00:00:00.000,Barnsley East,0,0,4285.666667,11.77380952,Horizon 2 Panel Carousel,No,0,4000-4999,10-20,0,12,9,1.333333333,370050805,1,1,0,None
370,99 ,0,0055022 ,370055022,55022,,37055022,09086,Doncaster Road,Doncaster Road,Doncaster Road/Cumberland Drive,opp,Cumberland Drive,Cumberland Drive,1993-06-07 00:00:00.000,2099-01-01 00:00:00.000,Doncaster Road/Cumberland Drive,B,P,BCT,MKD,N,N,N,L,ACT,Bus Layby,Cumberland Drive,Ardsley,Barnsley,South Yorkshire,Stairfoot Ward,Barnsley District,405672,438704,53.546267525,-1.417364450,Ardsley,W,E0029967,Ardsley,N,   ,BSL,N,BSL2,y,2099-01-01 00:00:00.000,,C,2,1 ,N,,NULL,NULL,NONE,HOR2,1993-06-07 00:00:00.000,Barnsley East,0,0,1651,4.535714286,Horizon 2 Panel Carousel,No,0,1000-1999,3-10,0,0,0,No Data,370055022,1,1,0,None
370,99 ,0,0050930 ,370050930,50930,,37050930,09080,Doncaster Road,Doncaster Road,Doncaster Road/Christ Church,adj,Christ Church,Ardsley/Oaks WMC,1993-06-07 00:00:00.000,2099-01-01 00:00:00.000,Doncaster Road/Christ Church,B,P,BCT,MKD,N,N,N,L,ACT,Outside Church/Graveyard/Opp.,Christ Church,Ardsley,Barnsley,South Yorkshire,Stairfoot Ward,Barnsley District,405635,438083,53.545980239,-1.426740324,Ardsley,W ,E0029967,Ardsley,Y,NULL,BSL,Y,BSL2,y,2099-01-01 00:00:00.000,,C,2,1 ,N,,NULL,NULL,STSB,HOR2,1993-06-07 00:00:00.000,Barnsley East,0,0,1651,4.535714286,Horizon 2 Panel Carousel,No,0,1000-1999,3-10,0,0,0,No Data,370050930,1,1,0,None
370,99 ,0,0050929 ,370050929,50929,,37050929,09080,Doncaster Road,Doncaster Road,Doncaster Road/Christ Church,opp,Christ Church,Ardsley/Oaks WMC,1993-06-07 00:00:00.000,2099-01-01 00:00:00.000,Doncaster Road/Christ Church,B,P,BCT,MKD,N,N,N,L,ACT,Church,Christ Church,Ardsley,Barnsley,South Yorkshire,Stairfoot Ward,Barnsley District,405663,438055,53.546233924,-1.427159467,Ardsley,E ,E0029967,Ardsley,Y,NULL,BSL,Y,BSL2,y,2099-01-01 00:00:00.000,,C,2,1 ,N,,NULL,NULL,TCAP,HOR2,1993-06-07 00:00:00.000,Barnsley East,0,0,1525.333333,4.19047619,Horizon 2 Panel Carousel,No,0,1000-1999,3-10,0,37,5,7.4,370050929,1,1,0,None
370,99 ,0,0050297 ,370050297,50297,,37050297,08614,Dodworth Road,Dodworth Road,Dodworth Road/Shaw Lane,adj,Shaw Lane,Dodworth Rd/Shaw Ln,1993-06-07 00:00:00.000,2099-01-01 00:00:00.000,Dodworth Road/Shaw Lane,B,P,BCT,MKD,N,N,N,L,ACT,Opp Rosedale Gardens,Shaw Lane,Pogmoor,Barnsley,South Yorkshire,Dodworth Ward,Barnsley District,406281,433322,53.552109118,-1.498519235,Pogmoor,W ,E0030472,Pogmoor,N,   ,BSL,Y,BSL2,y,2099-01-01 00:00:00.000,,R,2,2 ,N,,NULL,NULL,STSB,HOR2,1993-06-07 00:00:00.000,Penistone and Stocksbridge,0,0,788.6666667,2.166666667,Horizon 2 Panel Carousel,No,0,700-799,0.1-3,1,0,0,No Data,370050297,1,1,0,None
370,99 ,0,0050295 ,370050295,50295,,37050295,08610,Dodworth Road,Dodworth Road,Dodworth Road/Dean Street,adj,Dean Street,Dodworth Rd/Dean St,1993-06-07 00:00:00.000,2099-01-01 00:00:00.000,Dodworth Road/Dean Street,B,P,BCT,MKD,N,N,N,L,ACT,Opp Westfield St,Dean Street,Barnsley Centre,Barnsley,South Yorkshire,Kingstone Ward,Barnsley District,406277,433758,53.552045409,-1.491939100,Barnsley Centre,W ,E0057864,Barnsley Centre,Y,NULL,BSL,Y,BSL2,y,2099-01-01 00:00:00.000,,R,2,2 ,N,,NULL,NULL,TCAP,HOR2,1993-06-07 00:00:00.000,Barnsley Central,0,0,788.6666667,2.166666667,Horizon 2 Panel Carousel,No,0,700-799,0.1-3,1,10,6,1.666666667,No,0,1,0,Products
370,99 ,0,0055093 ,370055093,55093,,37055093,08790,Brierley Road,Brierley Road,Brierley Road/Church Street,opp,Church Street,Church Street,1993-06-07 00:00:00.000,2099-01-01 00:00:00.000,Brierley Road/Church Street,B,P,BCT,MKD,N,N,N,L,ACT,Opp Orchard House,Church Street,Brierley,Barnsley,South Yorkshire,North East Ward,Barnsley District,410832,441166,53.592457752,-1.379532986,Brierley,SW,E0052701,Brierley (Barnsley),N,   ,BSL,Y,BSL2,y,2099-01-01 00:00:00.000,,C,2,1 ,N,,NULL,NULL,BRSB,HOR2,1993-06-07 00:00:00.000,Barnsley East,0,0,1625,4.464285714,Horizon 2 Panel Carousel,No,0,1000-1999,3-10,0,14,4,3.5,No,0,1,0,None
370,99 ,0,0055233 ,370055233,55233,,37055233,08774,Brierley Road,Brierley Road,Brierley Road/Manor Crescent,adj,Manor Crescent,Manor Crescent,1993-06-13 00:00:00.000,2099-01-01 00:00:00.000,Brierley Road/Manor Crescent,B,P,BCT,MKD,N,N,N,L,ACT,Outside 104,Manor Crescent,Grimethorpe,Barnsley,South Yorkshire,North East Ward,Barnsley District,409693,441070,53.582228215,-1.381132783,Grimethorpe,SE,E0030204,Grimethorpe,N,   ,NONE,Y,BSL2,y,2099-01-01 00:00:00.000,,R,2,2 ,N,,NULL,NULL,STSB,HOR2,1993-06-13 00:00:00.000,Barnsley East,0,0,1625,4.464285714,Horizon 2 Panel Carousel,No,0,1000-1999,3-10,1,0,0,No Data,No,0,1,0,None
370,99 ,0,0055287 ,370055287,55287,,37055287,09286,Cross Lane,Cross Lane,Cross Lane/East End Crescent,nr,East End Crescent,East End Crescent,1993-06-07 00:00:00.000,2099-01-01 00:00:00.000,Cross Lane/East End Crescent,B,P,BCT,MKD,N,N,N,L,ACT,Opposite 35,East End Crescent,Royston,Barnsley,South Yorkshire,Royston Ward,Barnsley District,411520,437215,53.598935865,-1.439139902,Royston,S,E0030500,Royston (Barnsley),N,NULL,BSL,Y,BSL2,y,2099-01-01 00:00:00.000,,R,2,1 ,N,,NULL,NULL,STSB,TF2R,1993-06-07 00:00:00.000,Barnsley Central,0,0,845,2.321428571,Trueform 2 Panel Rotating,No,0,800-899,0.1-3,1,6,4,1.5,No,0,1,0,None
370,99 ,0,0055324 ,370055324,55324,,37055324,08938,Broadway,Broadway,Broadway/Woodland Drive,adj,Woodland Drive,Woodland Drive,1993-06-07 00:00:00.000,2099-01-01 00:00:00.000,Broadway/Woodland Drive,B,P,BCT,MKD,N,N,N,L,ACT,Opp Distribution Centre,Woodland Drive,Kingstone,Barnsley,South Yorkshire,Dodworth Ward,Barnsley District,405768,432968,53.547520548,-1.503916077,Kingstone,NW,E0030310,Kingstone (Barnsley),N,   ,BSL,Y,BSL2,y,2099-01-01 00:00:00.000,,C,2,1 ,N,,NULL,NULL,NONE,TF2R,1993-06-07 00:00:00.000,Penistone and Stocksbridge,0,0,86.66666667,0.238095238,Trueform 2 Panel Rotating,No,0,1-99,0.1-3,0,0,0,No Data,No,0,1,0,None
370,99 ,0,0050852 ,370050852,50852,,37050852,08826,Carlton Road,Carlton Road,Carlton Road/Aldbury Close,adj,Aldbury Close,Aldbury Close,1993-06-07 00:00:00.000,2099-01-01 00:00:00.000,Carlton Road/Aldbury Close,B,P,BCT,MKD,N,N,N,L,ACT,Adj to 157,Aldbury Close,Athersley South,Barnsley,South Yorkshire,St Helens Ward,Barnsley District,408900,435779,53.575487309,-1.461136831,Athersley South,S ,N0077937,Athersley South,N,NULL,BSL,Y,BSL2,y,2099-01-01 00:00:00.000,,R,2,1 ,N,,NULL,NULL,NONE,HOR2,1993-06-07 00:00:00.000,Barnsley Central,0,0,1057.333333,2.904761905,Horizon 2 Panel Carousel,No,0,1000-1999,0.1-3,1,44,6,7.333333333,No,0,1,0,None
370,99 ,0,0050826 ,370050826,50826,,37050826,08804,Burton Road,Burton Road,Burton Road/Old Mill,adj,Old Mill,Burton Rd/Old Mill,1993-06-07 00:00:00.000,2099-01-01 00:00:00.000,Burton Road/Old Mill,B,P,BCT,MKD,N,N,N,L,ACT,Opposite 92,Old Mill,Honeywell,Barnsley,South Yorkshire,Central Ward,Barnsley District,407304,435481,53.561162778,-1.465817724,Honeywell,NW,E0030277,Honeywell,N,   ,BSL,Y,BSL2,y,2099-01-01 00:00:00.000,,C,2,1 ,N,,NULL,NULL,STSB,TF2R,1993-06-07 00:00:00.000,Barnsley Central,0,0,1746.333333,4.797619048,Trueform 2 Panel Rotating,No,0,1000-1999,3-10,0,5,5,1,No,0,1,0,None